{
"type": "FeatureCollection",
"name": "xiaoxue",
"crs": { "type": "name", "properties": { "name": "urn:ogc:def:crs:OGC:1.3:CRS84" } },
"features": [
{ "type": "Feature", "properties": { "Name": "北京市房山区十渡中心小学", "Name_PY": "BeiJingShi FangShanQu ShiDu ZhongXin XiaoXue", "Ctype": "小学", "Ntype": "141203", "Code": "110111", "Address": null, "Telephone": null, "label": "北京市房山区十渡中心小学", "POINT_X": 115.60091616, "POINT_Y": 39.651751890100002 }, "geometry": { "type": "Point", "coordinates": [ 115.600916160252609, 39.651751890137689 ] } },
{ "type": "Feature", "properties": { "Name": "平安希望小学", "Name_PY": "PingAn XiWang XiaoXue", "Ctype": "小学", "Ntype": "141203", "Code": "110111", "Address": null, "Telephone": null, "label": "平安希望小学", "POINT_X": 115.5370878, "POINT_Y": 39.7343808002 }, "geometry": { "type": "Point", "coordinates": [ 115.537087799662231, 39.734380800233794 ] } },
{ "type": "Feature", "properties": { "Name": "清水中心黄塔小学", "Name_PY": "QingShui ZhongXin HuangTa XiaoXue", "Ctype": "小学", "Ntype": "141203", "Code": "110109", "Address": "黄塔村", "Telephone": "010-61826024", "label": "清水中心黄塔小学", "POINT_X": 115.56212112, "POINT_Y": 39.863546189899999 }, "geometry": { "type": "Point", "coordinates": [ 115.562121120393499, 39.86354618990481 ] } },
{ "type": "Feature", "properties": { "Name": "齐家庄中心小学", "Name_PY": "QiJiaZhuang ZhongXin XiaoXue", "Ctype": "小学", "Ntype": "141203", "Code": "110109", "Address": null, "Telephone": null, "label": "齐家庄中心小学", "POINT_X": 115.509312, "POINT_Y": 39.94162281 }, "geometry": { "type": "Point", "coordinates": [ 115.509311999948864, 39.941622810044692 ] } },
{ "type": "Feature", "properties": { "Name": "北京市房山区张坊中心小学", "Name_PY": "BeiJingShi FangShanQu ZhangFang ZhongXin XiaoXue", "Ctype": "小学", "Ntype": "141203", "Code": "110111", "Address": "张坊镇张坊村", "Telephone": null, "label": "北京市房山区张坊中心小学", "POINT_X": 115.71108876, "POINT_Y": 39.57276906 }, "geometry": { "type": "Point", "coordinates": [ 115.711088760437974, 39.572769060044152 ] } },
{ "type": "Feature", "properties": { "Name": "西白岱完全小学", "Name_PY": "XiBaiDai WanQuan XiaoXue", "Ctype": "小学", "Ntype": "141203", "Code": "110111", "Address": null, "Telephone": null, "label": "西白岱完全小学", "POINT_X": 115.7333904, "POINT_Y": 39.566986920200002 }, "geometry": { "type": "Point", "coordinates": [ 115.733390400346707, 39.56698692021024 ] } },
{ "type": "Feature", "properties": { "Name": "明德小学", "Name_PY": "MingDe XiaoXue", "Ctype": "小学", "Ntype": "141203", "Code": "110111", "Address": "大石窝镇下滩村", "Telephone": null, "label": "明德小学", "POINT_X": 115.74543096, "POINT_Y": 39.538743929900001 }, "geometry": { "type": "Point", "coordinates": [ 115.745430960070848, 39.538743929888483 ] } },
{ "type": "Feature", "properties": { "Name": "房山区张坊镇瓦沟万全小学", "Name_PY": "FangShanQu ZhangFangZhen WaGou WanQuan XiaoXue", "Ctype": "小学", "Ntype": "141203", "Code": "110111", "Address": null, "Telephone": null, "label": "房山区张坊镇瓦沟万全小学", "POINT_X": 115.69104144000001, "POINT_Y": 39.620557799700002 }, "geometry": { "type": "Point", "coordinates": [ 115.6910414403103, 39.620557799702738 ] } },
{ "type": "Feature", "properties": { "Name": "史家营中心小学", "Name_PY": "ShiJiaYing ZhongXin XiaoXue", "Ctype": "小学", "Ntype": "141203", "Code": "110111", "Address": null, "Telephone": null, "label": "史家营中心小学", "POINT_X": 115.72545744, "POINT_Y": 39.829651920099998 }, "geometry": { "type": "Point", "coordinates": [ 115.725457440108812, 39.829651920100105 ] } },
{ "type": "Feature", "properties": { "Name": "北京市门头沟区斋堂中心小学", "Name_PY": "BeiJingShi MenTouGouQu ZhaiTang ZhongXin XiaoXue", "Ctype": "小学", "Ntype": "141203", "Code": "110109", "Address": null, "Telephone": null, "label": "北京市门头沟区斋堂中心小学", "POINT_X": 115.69388832, "POINT_Y": 39.970939230299997 }, "geometry": { "type": "Point", "coordinates": [ 115.693888319790176, 39.970939230261308 ] } },
{ "type": "Feature", "properties": { "Name": "界河小学", "Name_PY": "JieHe XiaoXue", "Ctype": "小学", "Ntype": "141203", "Code": "110109", "Address": null, "Telephone": null, "label": "界河小学", "POINT_X": 115.7349816, "POINT_Y": 40.005197460200002 }, "geometry": { "type": "Point", "coordinates": [ 115.734981599621165, 40.005197460194665 ] } },
{ "type": "Feature", "properties": { "Name": "南尚乐中心小学", "Name_PY": "NanShangLe ZhongXin XiaoXue", "Ctype": "小学", "Ntype": "141203", "Code": "110111", "Address": null, "Telephone": null, "label": "南尚乐中心小学", "POINT_X": 115.77528792, "POINT_Y": 39.539013210299998 }, "geometry": { "type": "Point", "coordinates": [ 115.775287919601851, 39.5390132102915 ] } },
{ "type": "Feature", "properties": { "Name": "高庄完全小学", "Name_PY": "GaoZhuang WanQuan XiaoXue", "Ctype": "小学", "Ntype": "141203", "Code": "110111", "Address": null, "Telephone": null, "label": "高庄完全小学", "POINT_X": 115.81315884, "POINT_Y": 39.571546859800002 }, "geometry": { "type": "Point", "coordinates": [ 115.813158840408164, 39.57154685979981 ] } },
{ "type": "Feature", "properties": { "Name": "房山区韩村河镇宝健希望小学", "Name_PY": "FangShanQu HanCunHeZhen BaoJian XiWang XiaoXue", "Ctype": "小学", "Ntype": "141203", "Code": "110111", "Address": "韩村河", "Telephone": null, "label": "房山区韩村河镇宝健希望小学", "POINT_X": 115.85402784, "POINT_Y": 39.6401094 }, "geometry": { "type": "Point", "coordinates": [ 115.854027840112849, 39.640109400028848 ] } },
{ "type": "Feature", "properties": { "Name": "后石门完全小学", "Name_PY": "HouShiMen WanQuan XiaoXue", "Ctype": "小学", "Ntype": "141203", "Code": "110111", "Address": null, "Telephone": null, "label": "后石门完全小学", "POINT_X": 115.80923196000001, "POINT_Y": 39.5887929302 }, "geometry": { "type": "Point", "coordinates": [ 115.809231959687281, 39.58879293024961 ] } },
{ "type": "Feature", "properties": { "Name": "南窖中心小学", "Name_PY": "NanJiao ZhongXin XiaoXue", "Ctype": "小学", "Ntype": "141203", "Code": "110111", "Address": "南窖乡", "Telephone": null, "label": "南窖中心小学", "POINT_X": 115.8484896, "POINT_Y": 39.764960460399998 }, "geometry": { "type": "Point", "coordinates": [ 115.848489600015114, 39.764960460357031 ] } },
{ "type": "Feature", "properties": { "Name": "彦华希望小学", "Name_PY": "YanHua XiWang XiaoXue", "Ctype": "小学", "Ntype": "141203", "Code": "110111", "Address": "佛子庄", "Telephone": null, "label": "彦华希望小学", "POINT_X": 115.8260922, "POINT_Y": 39.812506380400002 }, "geometry": { "type": "Point", "coordinates": [ 115.826092200294852, 39.812506380365221 ] } },
{ "type": "Feature", "properties": { "Name": "大安山中心小学", "Name_PY": "DaAn Shan ZhongXin XiaoXue", "Ctype": "小学", "Ntype": "141203", "Code": "110111", "Address": null, "Telephone": null, "label": "大安山中心小学", "POINT_X": 115.77581676, "POINT_Y": 39.886019010399998 }, "geometry": { "type": "Point", "coordinates": [ 115.775816759635859, 39.886019010369068 ] } },
{ "type": "Feature", "properties": { "Name": "北京市门头沟区军响中心小学", "Name_PY": "BeiJingShi MenTouGouQu JunXiang ZhongXin XiaoXue", "Ctype": "小学", "Ntype": "141203", "Code": "110109", "Address": null, "Telephone": null, "label": "北京市门头沟区军响中心小学", "POINT_X": 115.77539952, "POINT_Y": 39.996802260099997 }, "geometry": { "type": "Point", "coordinates": [ 115.775399520071801, 39.996802260116283 ] } },
{ "type": "Feature", "properties": { "Name": "门头沟区军响中心张家村小学", "Name_PY": "MenTouGouQu JunXiang ZhongXin ZhangJiaCun XiaoXue", "Ctype": "小学", "Ntype": "141203", "Code": "110109", "Address": null, "Telephone": null, "label": "门头沟区军响中心张家村小学", "POINT_X": 115.79287464, "POINT_Y": 39.942264419700003 }, "geometry": { "type": "Point", "coordinates": [ 115.792874639752881, 39.94226441966731 ] } },
{ "type": "Feature", "properties": { "Name": "门头沟区大台中心千军台小学", "Name_PY": "MenTouGouQu DaTai ZhongXin QianJunTai XiaoXue", "Ctype": "小学", "Ntype": "141203", "Code": "110109", "Address": "大台路１９", "Telephone": null, "label": "门头沟区大台中心千军台小学", "POINT_X": 115.85809584, "POINT_Y": 39.936678570399998 }, "geometry": { "type": "Point", "coordinates": [ 115.858095839751286, 39.936678570359788 ] } },
{ "type": "Feature", "properties": { "Name": "北京市门头沟区付家台中心小学", "Name_PY": "BeiJingShi MenTouGouQu FuJiaTai ZhongXin XiaoXue", "Ctype": "小学", "Ntype": "141203", "Code": "110109", "Address": null, "Telephone": null, "label": "北京市门头沟区付家台中心小学", "POINT_X": 115.83224568, "POINT_Y": 40.017018509800003 }, "geometry": { "type": "Point", "coordinates": [ 115.832245680094161, 40.017018509796458 ] } },
{ "type": "Feature", "properties": { "Name": "曹章小学", "Name_PY": "CaoZhang XiaoXue", "Ctype": "小学", "Ntype": "141203", "Code": "110111", "Address": "韩村河镇曹章村", "Telephone": null, "label": "曹章小学", "POINT_X": 115.9565256, "POINT_Y": 39.584324070400001 }, "geometry": { "type": "Point", "coordinates": [ 115.956525599876613, 39.584324070399589 ] } },
{ "type": "Feature", "properties": { "Name": "长沟镇中心小学", "Name_PY": "ChangGouZhen ZhongXin XiaoXue", "Ctype": "小学", "Ntype": "141203", "Code": "110111", "Address": "长沟镇西长沟村", "Telephone": null, "label": "长沟镇中心小学", "POINT_X": 115.9005348, "POINT_Y": 39.574723320099999 }, "geometry": { "type": "Point", "coordinates": [ 115.900534800340779, 39.574723320125202 ] } },
{ "type": "Feature", "properties": { "Name": "五侯中心小学", "Name_PY": "WuHou ZhongXin XiaoXue", "Ctype": "小学", "Ntype": "141203", "Code": "110111", "Address": "韩村河镇五侯村五", "Telephone": null, "label": "五侯中心小学", "POINT_X": 115.9208892, "POINT_Y": 39.607742609799999 }, "geometry": { "type": "Point", "coordinates": [ 115.920889200276406, 39.607742609833622 ] } },
{ "type": "Feature", "properties": { "Name": "石楼中心小学", "Name_PY": "ShiLou ZhongXin XiaoXue", "Ctype": "小学", "Ntype": "141203", "Code": "110111", "Address": "石楼镇石楼村", "Telephone": null, "label": "石楼中心小学", "POINT_X": 115.98138576, "POINT_Y": 39.642337080099999 }, "geometry": { "type": "Point", "coordinates": [ 115.981385759745081, 39.642337080092204 ] } },
{ "type": "Feature", "properties": { "Name": "二站小学", "Name_PY": "ErZhan XiaoXue", "Ctype": "小学", "Ntype": "141203", "Code": "110111", "Address": null, "Telephone": null, "label": "二站小学", "POINT_X": 115.98993504000001, "POINT_Y": 39.631028129599997 }, "geometry": { "type": "Point", "coordinates": [ 115.98993503977033, 39.631028129644505 ] } },
{ "type": "Feature", "properties": { "Name": "吉羊小学", "Name_PY": "JiYang XiaoXue", "Ctype": "小学", "Ntype": "141203", "Code": "110111", "Address": "石楼镇吉羊村", "Telephone": null, "label": "吉羊小学", "POINT_X": 115.99807356, "POINT_Y": 39.621011760400002 }, "geometry": { "type": "Point", "coordinates": [ 115.998073559846944, 39.621011760384476 ] } },
{ "type": "Feature", "properties": { "Name": "西东小学", "Name_PY": "XiDong XiaoXue", "Ctype": "小学", "Ntype": "141203", "Code": "110111", "Address": "韩村河", "Telephone": null, "label": "西东小学", "POINT_X": 115.96928436, "POINT_Y": 39.598370909700002 }, "geometry": { "type": "Point", "coordinates": [ 115.969284359985295, 39.598370909689777 ] } },
{ "type": "Feature", "properties": { "Name": "韩村河中心小学", "Name_PY": "HanCunHe ZhongXin XiaoXue", "Ctype": "小学", "Ntype": "141203", "Code": "110111", "Address": "韩村河镇", "Telephone": null, "label": "韩村河中心小学", "POINT_X": 115.95162564, "POINT_Y": 39.5987679001 }, "geometry": { "type": "Point", "coordinates": [ 115.951625640111274, 39.59876790011856 ] } },
{ "type": "Feature", "properties": { "Name": "房山区韩村河镇天开完全小学", "Name_PY": "FangShanQu HanCunHeZhen TianKai WanQuan XiaoXue", "Ctype": "小学", "Ntype": "141203", "Code": "110111", "Address": null, "Telephone": null, "label": "房山区韩村河镇天开完全小学", "POINT_X": 115.90038684, "POINT_Y": 39.625227989899997 }, "geometry": { "type": "Point", "coordinates": [ 115.900386840280476, 39.625227989879875 ] } },
{ "type": "Feature", "properties": { "Name": "坨头小学", "Name_PY": "TuoTou XiaoXue", "Ctype": "小学", "Ntype": "141203", "Code": "110111", "Address": "石楼镇坨头村", "Telephone": null, "label": "坨头小学", "POINT_X": 115.99493184000001, "POINT_Y": 39.654779129600001 }, "geometry": { "type": "Point", "coordinates": [ 115.994931840332242, 39.654779129553219 ] } },
{ "type": "Feature", "properties": { "Name": "房山区城关第三小学", "Name_PY": "FangShanQu ChengGuan DiSan XiaoXue", "Ctype": "小学", "Ntype": "141203", "Code": "110111", "Address": "永安西里２５号", "Telephone": null, "label": "房山区城关第三小学", "POINT_X": 115.98068844, "POINT_Y": 39.689000730099998 }, "geometry": { "type": "Point", "coordinates": [ 115.980688439819687, 39.689000730099679 ] } },
{ "type": "Feature", "properties": { "Name": "前朱各庄小学", "Name_PY": "Qian ZhuGeZhuang XiaoXue", "Ctype": "小学", "Ntype": "141203", "Code": "110111", "Address": null, "Telephone": null, "label": "前朱各庄小学", "POINT_X": 115.99149492, "POINT_Y": 39.731340689699998 }, "geometry": { "type": "Point", "coordinates": [ 115.991494920154537, 39.731340689721094 ] } },
{ "type": "Feature", "properties": { "Name": "北京燕山前进第二小学", "Name_PY": "BeiJing YanShan QianJin DiEr XiaoXue", "Ctype": "小学", "Ntype": "141203", "Code": "110111", "Address": "燕山杏花西里４０号", "Telephone": null, "label": "北京燕山前进第二小学", "POINT_X": 115.95790296, "POINT_Y": 39.720391469900001 }, "geometry": { "type": "Point", "coordinates": [ 115.957902960153547, 39.720391469890501 ] } },
{ "type": "Feature", "properties": { "Name": "周口店中心小学", "Name_PY": "ZhouKouDian ZhongXin XiaoXue", "Ctype": "小学", "Ntype": "141203", "Code": "110111", "Address": "店地区", "Telephone": null, "label": "周口店中心小学", "POINT_X": 115.94547828, "POINT_Y": 39.681426420400001 }, "geometry": { "type": "Point", "coordinates": [ 115.945478280198586, 39.681426420393052 ] } },
{ "type": "Feature", "properties": { "Name": "长育中心小学", "Name_PY": "ChangYu ZhongXin XiaoXue", "Ctype": "小学", "Ntype": "141203", "Code": "110111", "Address": "城关街道房山西大街３３号", "Telephone": null, "label": "长育中心小学", "POINT_X": 115.9716006, "POINT_Y": 39.7032255003 }, "geometry": { "type": "Point", "coordinates": [ 115.971600599887893, 39.703225500256679 ] } },
{ "type": "Feature", "properties": { "Name": "北京市房山区城关小学", "Name_PY": "BeiJingShi FangShanQu ChengGuan XiaoXue", "Ctype": "小学", "Ntype": "141203", "Code": "110111", "Address": "城关街道东城根３号", "Telephone": null, "label": "北京市房山区城关小学", "POINT_X": 115.98852636, "POINT_Y": 39.700596239600003 }, "geometry": { "type": "Point", "coordinates": [ 115.988526359703769, 39.700596239624815 ] } },
{ "type": "Feature", "properties": { "Name": "北京市燕山前进第二小学教学楼", "Name_PY": "BeiJingShi YanShan QianJin DiEr XiaoXue JiaoXueLou", "Ctype": "小学", "Ntype": "141203", "Code": "110111", "Address": "迎风街道杏花西里４０号", "Telephone": null, "label": "北京市燕山前进第二小学教学楼", "POINT_X": 115.95741768000001, "POINT_Y": 39.720404340100004 }, "geometry": { "type": "Point", "coordinates": [ 115.95741767968218, 39.720404340088294 ] } },
{ "type": "Feature", "properties": { "Name": "燕山向阳小学", "Name_PY": "YanShan XiangYang XiaoXue", "Ctype": "小学", "Ntype": "141203", "Code": "110111", "Address": null, "Telephone": "010-81334210", "label": "燕山向阳小学", "POINT_X": 115.95877632, "POINT_Y": 39.723798240299999 }, "geometry": { "type": "Point", "coordinates": [ 115.958776319671529, 39.723798240296617 ] } },
{ "type": "Feature", "properties": { "Name": "北京燕山羊耳峪小学", "Name_PY": "BeiJing YanShan YangErYu XiaoXue", "Ctype": "小学", "Ntype": "141203", "Code": "110111", "Address": null, "Telephone": null, "label": "北京燕山羊耳峪小学", "POINT_X": 115.97091732, "POINT_Y": 39.760567290099999 }, "geometry": { "type": "Point", "coordinates": [ 115.970917320178273, 39.760567290148401 ] } },
{ "type": "Feature", "properties": { "Name": "北京市房山区佛子庄乡中心小学", "Name_PY": "BeiJingShi FangShanQu FoZiZhuangXiang ZhongXin XiaoXue", "Ctype": "小学", "Ntype": "141203", "Code": "110111", "Address": "佛子庄", "Telephone": null, "label": "北京市房山区佛子庄乡中心小学", "POINT_X": 115.90087644, "POINT_Y": 39.82962105 }, "geometry": { "type": "Point", "coordinates": [ 115.900876440195589, 39.829621049971536 ] } },
{ "type": "Feature", "properties": { "Name": "东风小学（横岭路）", "Name_PY": "DongFeng XiaoXue (HengLing Lu)", "Ctype": "小学", "Ntype": "141203", "Code": "110111", "Address": "燕山东风大街１６号", "Telephone": null, "label": "东风小学（横岭路）", "POINT_X": 115.96893588, "POINT_Y": 39.763464209699997 }, "geometry": { "type": "Point", "coordinates": [ 115.968935879886999, 39.763464209705546 ] } },
{ "type": "Feature", "properties": { "Name": "河北镇中心小学", "Name_PY": "HeBeiZhen ZhongXin XiaoXue", "Ctype": "小学", "Ntype": "141203", "Code": "110111", "Address": null, "Telephone": null, "label": "河北镇中心小学", "POINT_X": 115.93543284, "POINT_Y": 39.816571680199999 }, "geometry": { "type": "Point", "coordinates": [ 115.935432840353315, 39.816571680238894 ] } },
{ "type": "Feature", "properties": { "Name": "北京市门头沟区王平村中心小学", "Name_PY": "BeiJingShi MenTouGouQu WangPingCun ZhongXin XiaoXue", "Ctype": "小学", "Ntype": "141203", "Code": "110109", "Address": null, "Telephone": null, "label": "北京市门头沟区王平村中心小学", "POINT_X": 115.99571088, "POINT_Y": 39.9708204298 }, "geometry": { "type": "Point", "coordinates": [ 115.995710879853277, 39.970820429819014 ] } },
{ "type": "Feature", "properties": { "Name": "付家台中心雁翅小学", "Name_PY": "FuJia TaiZhong XinYanChi XiaoXue", "Ctype": "小学", "Ntype": "141203", "Code": "110109", "Address": null, "Telephone": null, "label": "付家台中心雁翅小学", "POINT_X": 115.90110936000001, "POINT_Y": 40.035491279799999 }, "geometry": { "type": "Point", "coordinates": [ 115.90110936010899, 40.035491279798748 ] } },
{ "type": "Feature", "properties": { "Name": "八达岭中心小学", "Name_PY": "BaDaLing ZhongXin XiaoXue", "Ctype": "小学", "Ntype": "141203", "Code": "110229", "Address": "八达岭镇西拨子村", "Telephone": null, "label": "八达岭中心小学", "POINT_X": 115.97133924000001, "POINT_Y": 40.365830969599998 }, "geometry": { "type": "Point", "coordinates": [ 115.971339239814142, 40.36583096962363 ] } },
{ "type": "Feature", "properties": { "Name": "康庄小学", "Name_PY": "KangZhuang XiaoXue", "Ctype": "小学", "Ntype": "141203", "Code": "110229", "Address": "康庄镇一街", "Telephone": null, "label": "康庄小学", "POINT_X": 115.90445412, "POINT_Y": 40.373796329699999 }, "geometry": { "type": "Point", "coordinates": [ 115.904454119562047, 40.373796329736876 ] } },
{ "type": "Feature", "properties": { "Name": "太平庄中心小学", "Name_PY": "TaiPingZhuang ZhongXin XiaoXue", "Ctype": "小学", "Ntype": "141203", "Code": "110229", "Address": "刁五路", "Telephone": null, "label": "太平庄中心小学", "POINT_X": 115.89064488, "POINT_Y": 40.416154290199998 }, "geometry": { "type": "Point", "coordinates": [ 115.890644880257128, 40.416154290188388 ] } },
{ "type": "Feature", "properties": { "Name": "八达岭中心小学（西南门）", "Name_PY": "BaDaLing ZhongXin XiaoXue (XiNanMen)", "Ctype": "小学", "Ntype": "141203", "Code": "110229", "Address": "八达岭镇西拨子村", "Telephone": null, "label": "八达岭中心小学（西南门）", "POINT_X": 115.97136336, "POINT_Y": 40.36555467 }, "geometry": { "type": "Point", "coordinates": [ 115.971363359631368, 40.365554670012045 ] } },
{ "type": "Feature", "properties": { "Name": "延庆县第四小学", "Name_PY": "YanQingXian DiSi XiaoXue", "Ctype": "小学", "Ntype": "141203", "Code": "110229", "Address": null, "Telephone": null, "label": "延庆县第四小学", "POINT_X": 115.9758216, "POINT_Y": 40.446615059899997 }, "geometry": { "type": "Point", "coordinates": [ 115.975821600286736, 40.44661505993713 ] } },
{ "type": "Feature", "properties": { "Name": "大营满族小学", "Name_PY": "DaYing ManZu XiaoXue", "Ctype": "小学", "Ntype": "141203", "Code": "110229", "Address": null, "Telephone": null, "label": "大营满族小学", "POINT_X": 115.89995484000001, "POINT_Y": 40.42802763 }, "geometry": { "type": "Point", "coordinates": [ 115.899954840143778, 40.428027629971211 ] } },
{ "type": "Feature", "properties": { "Name": "下屯中心小学", "Name_PY": "XiaTun ZhongXin XiaoXue", "Ctype": "小学", "Ntype": "141203", "Code": "110229", "Address": "大榆树镇下屯村西北", "Telephone": null, "label": "下屯中心小学", "POINT_X": 115.94864988, "POINT_Y": 40.429145790299998 }, "geometry": { "type": "Point", "coordinates": [ 115.948649879688219, 40.429145790346013 ] } },
{ "type": "Feature", "properties": { "Name": "延庆西屯中心小学", "Name_PY": "YanQing XiTun ZhongXin XiaoXue", "Ctype": "小学", "Ntype": "141203", "Code": "110229", "Address": "延庆镇新白庙村北", "Telephone": null, "label": "延庆西屯中心小学", "POINT_X": 115.94923308, "POINT_Y": 40.4601165 }, "geometry": { "type": "Point", "coordinates": [ 115.949233080142562, 40.46011649997655 ] } },
{ "type": "Feature", "properties": { "Name": "延庆县第二小学", "Name_PY": "YanQingXian DiEr XiaoXue", "Ctype": "小学", "Ntype": "141203", "Code": "110229", "Address": "高塔街１９", "Telephone": null, "label": "延庆县第二小学", "POINT_X": 115.9811694, "POINT_Y": 40.464837990200003 }, "geometry": { "type": "Point", "coordinates": [ 115.98116939994793, 40.464837990181138 ] } },
{ "type": "Feature", "properties": { "Name": "延庆县第一小学", "Name_PY": "YanQingXian DiYi XiaoXue", "Ctype": "小学", "Ntype": "141203", "Code": "110229", "Address": null, "Telephone": null, "label": "延庆县第一小学", "POINT_X": 115.97120172, "POINT_Y": 40.461613829800001 }, "geometry": { "type": "Point", "coordinates": [ 115.971201719983469, 40.461613829814439 ] } },
{ "type": "Feature", "properties": { "Name": "延庆县第三小学", "Name_PY": "YanQingXian DiSan XiaoXue", "Ctype": "小学", "Ntype": "141203", "Code": "110229", "Address": "东外大街６６", "Telephone": null, "label": "延庆县第三小学", "POINT_X": 115.99008156, "POINT_Y": 40.462123679800001 }, "geometry": { "type": "Point", "coordinates": [ 115.990081560016051, 40.46212367976409 ] } },
{ "type": "Feature", "properties": { "Name": "莲花池小学", "Name_PY": "LianHuaChi XiaoXue", "Ctype": "小学", "Ntype": "141203", "Code": "110229", "Address": null, "Telephone": null, "label": "莲花池小学", "POINT_X": 116.0037342, "POINT_Y": 40.454308529800002 }, "geometry": { "type": "Point", "coordinates": [ 116.00373420037306, 40.454308529814853 ] } },
{ "type": "Feature", "properties": { "Name": "延庆县八里庄中心小学", "Name_PY": "YanQingXian BaLiZhuang ZhongXin XiaoXue", "Ctype": "小学", "Ntype": "141203", "Code": "110229", "Address": "延庆镇", "Telephone": null, "label": "延庆县八里庄中心小学", "POINT_X": 115.95721032, "POINT_Y": 40.485832649899997 }, "geometry": { "type": "Point", "coordinates": [ 115.957210320300078, 40.485832649856945 ] } },
{ "type": "Feature", "properties": { "Name": "司家营小学", "Name_PY": "SiJiaYing XiaoXue", "Ctype": "小学", "Ntype": "141203", "Code": "110229", "Address": null, "Telephone": null, "label": "司家营小学", "POINT_X": 115.99751844, "POINT_Y": 40.442522310100003 }, "geometry": { "type": "Point", "coordinates": [ 115.997518439824148, 40.442522310056631 ] } },
{ "type": "Feature", "properties": { "Name": "延庆县八里庄中心小学（南门）", "Name_PY": "YanQingXian BaLiZhuang ZhongXin XiaoXue (NanMen)", "Ctype": "小学", "Ntype": "141203", "Code": "110229", "Address": "延庆镇", "Telephone": null, "label": "延庆县八里庄中心小学（南门）", "POINT_X": 115.957278, "POINT_Y": 40.485559499700003 }, "geometry": { "type": "Point", "coordinates": [ 115.957277999680059, 40.48555949967124 ] } },
{ "type": "Feature", "properties": { "Name": "北京市延庆县八一爱民小学", "Name_PY": "BeiJingShi YanQingXian BaYi AiMin XiaoXue", "Ctype": "小学", "Ntype": "141203", "Code": "110229", "Address": null, "Telephone": null, "label": "北京市延庆县八一爱民小学", "POINT_X": 115.93889316000001, "POINT_Y": 40.516553609699997 }, "geometry": { "type": "Point", "coordinates": [ 115.93889315999138, 40.516553609661401 ] } },
{ "type": "Feature", "properties": { "Name": "靳家堡中心小学", "Name_PY": "JinJiaBao ZhongXin XiaoXue", "Ctype": "小学", "Ntype": "141203", "Code": "110229", "Address": "靳家堡村", "Telephone": null, "label": "靳家堡中心小学", "POINT_X": 115.97056884, "POINT_Y": 40.516933680199998 }, "geometry": { "type": "Point", "coordinates": [ 115.970568840079977, 40.516933680245188 ] } },
{ "type": "Feature", "properties": { "Name": "延庆县靳家堡中心小学", "Name_PY": "YanQingXian JinJiaBao ZhongXin XiaoXue", "Ctype": "小学", "Ntype": "141203", "Code": "110229", "Address": "张山营", "Telephone": null, "label": "延庆县靳家堡中心小学", "POINT_X": 115.93889424, "POINT_Y": 40.516556129599998 }, "geometry": { "type": "Point", "coordinates": [ 115.938894240077161, 40.516556129561764 ] } },
{ "type": "Feature", "properties": { "Name": "祖村小学", "Name_PY": "ZuCun XiaoXue", "Ctype": "小学", "Ntype": "141203", "Code": "110111", "Address": "琉璃河", "Telephone": null, "label": "祖村小学", "POINT_X": 116.079678, "POINT_Y": 39.579665489600004 }, "geometry": { "type": "Point", "coordinates": [ 116.079678000039735, 39.579665489570743 ] } },
{ "type": "Feature", "properties": { "Name": "北京市房山区琉璃河中心小学", "Name_PY": "BeiJingShi FangShanQu LiuLiHe ZhongXin XiaoXue", "Ctype": "小学", "Ntype": "141203", "Code": "110111", "Address": "琉璃河", "Telephone": null, "label": "北京市房山区琉璃河中心小学", "POINT_X": 116.02171116, "POINT_Y": 39.597541830099999 }, "geometry": { "type": "Point", "coordinates": [ 116.021711159742267, 39.597541830091416 ] } },
{ "type": "Feature", "properties": { "Name": "兴礼完全小学", "Name_PY": "XingLi WanQuan XiaoXue", "Ctype": "小学", "Ntype": "141203", "Code": "110111", "Address": null, "Telephone": null, "label": "兴礼完全小学", "POINT_X": 116.08238988, "POINT_Y": 39.595073850299997 }, "geometry": { "type": "Point", "coordinates": [ 116.0823898795893, 39.595073850278027 ] } },
{ "type": "Feature", "properties": { "Name": "芦村完全小学", "Name_PY": "LuCun WanQuan XiaoXue", "Ctype": "小学", "Ntype": "141203", "Code": "110111", "Address": "窦店镇", "Telephone": null, "label": "芦村完全小学", "POINT_X": 116.0442036, "POINT_Y": 39.63439557 }, "geometry": { "type": "Point", "coordinates": [ 116.044203599816342, 39.634395569999583 ] } },
{ "type": "Feature", "properties": { "Name": "窦店中心小学", "Name_PY": "DouDian ZhongXin XiaoXue", "Ctype": "小学", "Ntype": "141203", "Code": "110111", "Address": "窦店镇", "Telephone": null, "label": "窦店中心小学", "POINT_X": 116.0639244, "POINT_Y": 39.6427941902 }, "geometry": { "type": "Point", "coordinates": [ 116.063924400390874, 39.642794190199766 ] } },
{ "type": "Feature", "properties": { "Name": "房山区窦店镇望楚完全小学", "Name_PY": "FangShanQu DouDianZhen WangChu WanQuan XiaoXue", "Ctype": "小学", "Ntype": "141203", "Code": "110111", "Address": null, "Telephone": null, "label": "房山区窦店镇望楚完全小学", "POINT_X": 116.08663644000001, "POINT_Y": 39.6577109698 }, "geometry": { "type": "Point", "coordinates": [ 116.086636439620065, 39.657710969785455 ] } },
{ "type": "Feature", "properties": { "Name": "房山区窦店镇大高舍完全小学", "Name_PY": "FangShanQu DouDianZhen DaGao SheWanQuan XiaoXue", "Ctype": "小学", "Ntype": "141203", "Code": "110111", "Address": null, "Telephone": null, "label": "房山区窦店镇大高舍完全小学", "POINT_X": 116.10558396, "POINT_Y": 39.666939210099997 }, "geometry": { "type": "Point", "coordinates": [ 116.105583959931892, 39.666939210076521 ] } },
{ "type": "Feature", "properties": { "Name": "房山区琉璃河镇三街完全小学", "Name_PY": "FangShanQu LiuLi HeZhen SanJie WanQuan XiaoXue", "Ctype": "小学", "Ntype": "141203", "Code": "110111", "Address": "琉璃河", "Telephone": null, "label": "房山区琉璃河镇三街完全小学", "POINT_X": 116.02863324, "POINT_Y": 39.595400010100001 }, "geometry": { "type": "Point", "coordinates": [ 116.028633239732244, 39.595400010102423 ] } },
{ "type": "Feature", "properties": { "Name": "夏村小学", "Name_PY": "XiaCun XiaoXue", "Ctype": "小学", "Ntype": "141203", "Code": "110111", "Address": "石楼镇", "Telephone": null, "label": "夏村小学", "POINT_X": 116.03260692000001, "POINT_Y": 39.667422330400001 }, "geometry": { "type": "Point", "coordinates": [ 116.032606920273224, 39.667422330376326 ] } },
{ "type": "Feature", "properties": { "Name": "瓦窑头村完全小学", "Name_PY": "WaYaoTouCun WanQuan XiaoXue", "Ctype": "小学", "Ntype": "141203", "Code": "110111", "Address": null, "Telephone": null, "label": "瓦窑头村完全小学", "POINT_X": 116.06899428, "POINT_Y": 39.666089519800003 }, "geometry": { "type": "Point", "coordinates": [ 116.068994279862181, 39.666089519815557 ] } },
{ "type": "Feature", "properties": { "Name": "交道中心小学", "Name_PY": "JiaoDao ZhongXin XiaoXue", "Ctype": "小学", "Ntype": "141203", "Code": "110111", "Address": null, "Telephone": null, "label": "交道中心小学", "POINT_X": 116.12033856, "POINT_Y": 39.64836393 }, "geometry": { "type": "Point", "coordinates": [ 116.120338560276423, 39.648363929951472 ] } },
{ "type": "Feature", "properties": { "Name": "房山区西潞办事处固村完全小学", "Name_PY": "FangShanQu XiLu BanShiChu GuCun WanQuan XiaoXue", "Ctype": "小学", "Ntype": "141203", "Code": "110111", "Address": null, "Telephone": null, "label": "房山区西潞办事处固村完全小学", "POINT_X": 116.1258174, "POINT_Y": 39.747655079600001 }, "geometry": { "type": "Point", "coordinates": [ 116.125817400152982, 39.747655079618255 ] } },
{ "type": "Feature", "properties": { "Name": "北京房山城关街道马各庄完全小学", "Name_PY": "BeiJing FangShan ChengGuan JieDao MaGeZhuang WanQuan XiaoXue", "Ctype": "小学", "Ntype": "141203", "Code": "110111", "Address": null, "Telephone": null, "label": "北京房山城关街道马各庄完全小学", "POINT_X": 116.01560952, "POINT_Y": 39.702593790400002 }, "geometry": { "type": "Point", "coordinates": [ 116.015609519563782, 39.702593790371168 ] } },
{ "type": "Feature", "properties": { "Name": "房山区窦店镇苏村完全小学", "Name_PY": "FangShanQu DouDianZhen SuCun WanQuan XiaoXue", "Ctype": "小学", "Ntype": "141203", "Code": "110111", "Address": null, "Telephone": null, "label": "房山区窦店镇苏村完全小学", "POINT_X": 116.0479458, "POINT_Y": 39.674058120200002 }, "geometry": { "type": "Point", "coordinates": [ 116.047945800258503, 39.674058120186146 ] } },
{ "type": "Feature", "properties": { "Name": "房山区窦店镇下坡店完全小学", "Name_PY": "FangShanQu DouDianZhen XiaPo Dian WanQuan XiaoXue", "Ctype": "小学", "Ntype": "141203", "Code": "110111", "Address": null, "Telephone": null, "label": "房山区窦店镇下坡店完全小学", "POINT_X": 116.063865, "POINT_Y": 39.6832772701 }, "geometry": { "type": "Point", "coordinates": [ 116.063865000169699, 39.683277270129963 ] } },
{ "type": "Feature", "properties": { "Name": "星城二小", "Name_PY": "XingCheng ErXiao", "Ctype": "小学", "Ntype": "141203", "Code": "110111", "Address": "一里４０号", "Telephone": null, "label": "星城二小", "POINT_X": 116.0641476, "POINT_Y": 39.711927780099998 }, "geometry": { "type": "Point", "coordinates": [ 116.064147600431511, 39.711927780143014 ] } },
{ "type": "Feature", "properties": { "Name": "房山区阎村镇后十三里完全小学", "Name_PY": "FangShanQu YanCunZhen Hou ShiSanLi WanQuan XiaoXue", "Ctype": "小学", "Ntype": "141203", "Code": "110111", "Address": null, "Telephone": null, "label": "房山区阎村镇后十三里完全小学", "POINT_X": 116.1087498, "POINT_Y": 39.693388859599999 }, "geometry": { "type": "Point", "coordinates": [ 116.108749800163196, 39.693388859608262 ] } },
{ "type": "Feature", "properties": { "Name": "东沿村完全小学", "Name_PY": "DongYanCun WanQuan XiaoXue", "Ctype": "小学", "Ntype": "141203", "Code": "110111", "Address": null, "Telephone": null, "label": "东沿村完全小学", "POINT_X": 116.10620244, "POINT_Y": 39.731419259900001 }, "geometry": { "type": "Point", "coordinates": [ 116.106202439890694, 39.73141925989097 ] } },
{ "type": "Feature", "properties": { "Name": "肖庄小学", "Name_PY": "XiaoZhuang XiaoXue", "Ctype": "小学", "Ntype": "141203", "Code": "110111", "Address": null, "Telephone": null, "label": "肖庄小学", "POINT_X": 116.125641, "POINT_Y": 39.707418959800002 }, "geometry": { "type": "Point", "coordinates": [ 116.125640999932216, 39.707418959817176 ] } },
{ "type": "Feature", "properties": { "Name": "房山区良乡中心校太平庄完全小学", "Name_PY": "FangShanQu LiangXiang ZhongXinXiao TaiPingZhuang WanQuan XiaoXue", "Ctype": "小学", "Ntype": "141203", "Code": "110111", "Address": "太平庄１５４", "Telephone": null, "label": "房山区良乡中心校太平庄完全小学", "POINT_X": 116.12024064000001, "POINT_Y": 39.733579259700001 }, "geometry": { "type": "Point", "coordinates": [ 116.120240640293332, 39.733579259675139 ] } },
{ "type": "Feature", "properties": { "Name": "良乡中心小学", "Name_PY": "LiangXiang ZhongXin XiaoXue", "Ctype": "小学", "Ntype": "141203", "Code": "110111", "Address": "良乡西潞街道苏庄村", "Telephone": null, "label": "良乡中心小学", "POINT_X": 116.12413332, "POINT_Y": 39.724995059900003 }, "geometry": { "type": "Point", "coordinates": [ 116.124133319796897, 39.724995059874175 ] } },
{ "type": "Feature", "properties": { "Name": "星城二小综合楼", "Name_PY": "XingCheng ErXiao ZongHeLou", "Ctype": "小学", "Ntype": "141203", "Code": "110111", "Address": "闫村镇健德一里４０号", "Telephone": null, "label": "星城二小综合楼", "POINT_X": 116.06416092000001, "POINT_Y": 39.7116719104 }, "geometry": { "type": "Point", "coordinates": [ 116.064160920290306, 39.711671910430368 ] } },
{ "type": "Feature", "properties": { "Name": "星城小学教学楼", "Name_PY": "XingCheng XiaoXue JiaoXueLou", "Ctype": "小学", "Ntype": "141203", "Code": "110111", "Address": "闫村镇健德一里４１号", "Telephone": null, "label": "星城小学教学楼", "POINT_X": 116.0654634, "POINT_Y": 39.712185270399999 }, "geometry": { "type": "Point", "coordinates": [ 116.065463400315707, 39.712185270433963 ] } },
{ "type": "Feature", "properties": { "Name": "北京市房山区阎村中心校", "Name_PY": "BeiJingShi FangShanQu YanCun ZhongXinXiao", "Ctype": "小学", "Ntype": "141203", "Code": "110111", "Address": null, "Telephone": null, "label": "北京市房山区阎村中心校", "POINT_X": 116.08127928, "POINT_Y": 39.708884250399997 }, "geometry": { "type": "Point", "coordinates": [ 116.081279279815021, 39.708884250407891 ] } },
{ "type": "Feature", "properties": { "Name": "房山区阎村镇后沿村完全小学", "Name_PY": "FangShanQu YanCunZhen HouYanCun WanQuan XiaoXue", "Ctype": "小学", "Ntype": "141203", "Code": "110111", "Address": null, "Telephone": null, "label": "房山区阎村镇后沿村完全小学", "POINT_X": 116.09435772, "POINT_Y": 39.728008799599998 }, "geometry": { "type": "Point", "coordinates": [ 116.094357720132734, 39.72800879956651 ] } },
{ "type": "Feature", "properties": { "Name": "房山区青龙镇南四位完全小学", "Name_PY": "FangShanQu QingLongZhen NanSiWei WanQuan XiaoXue", "Ctype": "小学", "Ntype": "141203", "Code": "110111", "Address": null, "Telephone": null, "label": "房山区青龙镇南四位完全小学", "POINT_X": 116.0700768, "POINT_Y": 39.8054334598 }, "geometry": { "type": "Point", "coordinates": [ 116.070076800104289, 39.8054334597864 ] } },
{ "type": "Feature", "properties": { "Name": "坨里中心小学", "Name_PY": "TuoLi ZhongXin XiaoXue", "Ctype": "小学", "Ntype": "141203", "Code": "110111", "Address": null, "Telephone": null, "label": "坨里中心小学", "POINT_X": 116.03637972, "POINT_Y": 39.7766753099 }, "geometry": { "type": "Point", "coordinates": [ 116.036379720148034, 39.776675309917664 ] } },
{ "type": "Feature", "properties": { "Name": "房山区青龙湖镇青龙湖中心校", "Name_PY": "FangShanQu QingLongHuZhen QingLongHu ZhongXinXiao", "Ctype": "小学", "Ntype": "141203", "Code": "110111", "Address": null, "Telephone": null, "label": "房山区青龙湖镇青龙湖中心校", "POINT_X": 116.11171116, "POINT_Y": 39.767247629700002 }, "geometry": { "type": "Point", "coordinates": [ 116.111711159742299, 39.767247629674443 ] } },
{ "type": "Feature", "properties": { "Name": "青龙湖中心校大苑村完全小学", "Name_PY": "QingLongHu ZhongXin XiaoDa YuanCun WanQuan XiaoXue", "Ctype": "小学", "Ntype": "141203", "Code": "110111", "Address": null, "Telephone": null, "label": "青龙湖中心校大苑村完全小学", "POINT_X": 116.11171116, "POINT_Y": 39.767247810400001 }, "geometry": { "type": "Point", "coordinates": [ 116.111711159742299, 39.767247810438164 ] } },
{ "type": "Feature", "properties": { "Name": "北京市房山区青龙湖镇中心小学", "Name_PY": "BeiJingShi FangShanQu QingLongHuZhen ZhongXin XiaoXue", "Ctype": "小学", "Ntype": "141203", "Code": "110111", "Address": "窦各庄村下三区６９", "Telephone": null, "label": "北京市房山区青龙湖镇中心小学", "POINT_X": 116.08350228, "POINT_Y": 39.774039479700001 }, "geometry": { "type": "Point", "coordinates": [ 116.083502279806453, 39.774039479738235 ] } },
{ "type": "Feature", "properties": { "Name": "上万小学", "Name_PY": "ShangWan XiaoXue", "Ctype": "小学", "Ntype": "141203", "Code": "110111", "Address": "湖镇上万村", "Telephone": null, "label": "上万小学", "POINT_X": 116.0425566, "POINT_Y": 39.81265371 }, "geometry": { "type": "Point", "coordinates": [ 116.042556600306966, 39.812653710000745 ] } },
{ "type": "Feature", "properties": { "Name": "青龙湖镇小学", "Name_PY": "QingLongHuZhen XiaoXue", "Ctype": "小学", "Ntype": "141203", "Code": "110111", "Address": null, "Telephone": null, "label": "青龙湖镇小学", "POINT_X": 116.08404552, "POINT_Y": 39.773483279600001 }, "geometry": { "type": "Point", "coordinates": [ 116.084045519784922, 39.773483279629716 ] } },
{ "type": "Feature", "properties": { "Name": "门头沟区永定中心上岸小学", "Name_PY": "MenTouGouQu YongDing ZhongXin ShangAn XiaoXue", "Ctype": "小学", "Ntype": "141203", "Code": "110109", "Address": null, "Telephone": null, "label": "门头沟区永定中心上岸小学", "POINT_X": 116.12303388, "POINT_Y": 39.902214689799997 }, "geometry": { "type": "Point", "coordinates": [ 116.123033879709851, 39.902214689756192 ] } },
{ "type": "Feature", "properties": { "Name": "栗元庄小学", "Name_PY": "LiYuanZhuang XiaoXue", "Ctype": "小学", "Ntype": "141203", "Code": "110109", "Address": null, "Telephone": null, "label": "栗元庄小学", "POINT_X": 116.11922436, "POINT_Y": 39.894209729799996 }, "geometry": { "type": "Point", "coordinates": [ 116.11922435961651, 39.89420972979525 ] } },
{ "type": "Feature", "properties": { "Name": "潭柘寺中心小学", "Name_PY": "TanZheSi ZhongXin XiaoXue", "Ctype": "小学", "Ntype": "141203", "Code": "110109", "Address": "潭柘寺", "Telephone": "010-60861507", "label": "潭柘寺中心小学", "POINT_X": 116.03814408, "POINT_Y": 39.875288219700003 }, "geometry": { "type": "Point", "coordinates": [ 116.038144080285178, 39.875288219675667 ] } },
{ "type": "Feature", "properties": { "Name": "北京第二实验小学（永定分校）", "Name_PY": "BeiJing DiEr ShiYan XiaoXue (YongDing FenXiao)", "Ctype": "小学", "Ntype": "141203", "Code": "110109", "Address": "永定镇冯村", "Telephone": null, "label": "北京第二实验小学（永定分校）", "POINT_X": 116.10633456, "POINT_Y": 39.910361669799997 }, "geometry": { "type": "Point", "coordinates": [ 116.10633456019184, 39.910361669755332 ] } },
{ "type": "Feature", "properties": { "Name": "北京第二实验小学永定分校冯村校区", "Name_PY": "BeiJing DiEr ShiYan XiaoXue YongDing FenXiao FengCun XiaoQu", "Ctype": "小学", "Ntype": "141203", "Code": "110109", "Address": "永定镇", "Telephone": null, "label": "北京第二实验小学永定分校冯村校区", "POINT_X": 116.09500608, "POINT_Y": 39.909817800299997 }, "geometry": { "type": "Point", "coordinates": [ 116.095006080066582, 39.909817800251346 ] } },
{ "type": "Feature", "properties": { "Name": "中国人民大学附属小学京西校区", "Name_PY": "ZhongGuo RenMin DaXue FuShu XiaoXue JingXi XiaoQu", "Ctype": "小学", "Ntype": "141203", "Code": "110109", "Address": null, "Telephone": null, "label": "中国人民大学附属小学京西校区", "POINT_X": 116.10901548, "POINT_Y": 39.887289089600003 }, "geometry": { "type": "Point", "coordinates": [ 116.109015479680693, 39.887289089619856 ] } },
{ "type": "Feature", "properties": { "Name": "北京第二实验小学永定分校（东北门）", "Name_PY": "BeiJing DiEr ShiYan XiaoXue YongDing FenXiao (DongBeiMen)", "Ctype": "小学", "Ntype": "141203", "Code": "110109", "Address": "永定镇冯村", "Telephone": null, "label": "北京第二实验小学永定分校（东北门）", "POINT_X": 116.10663912, "POINT_Y": 39.910908870299998 }, "geometry": { "type": "Point", "coordinates": [ 116.10663912009943, 39.910908870348123 ] } },
{ "type": "Feature", "properties": { "Name": "北京第二实验小学永定分校（西南门）", "Name_PY": "BeiJing DiEr ShiYan XiaoXue YongDing FenXiao (XiNanMen)", "Ctype": "小学", "Ntype": "141203", "Code": "110109", "Address": null, "Telephone": null, "label": "北京第二实验小学永定分校（西南门）", "POINT_X": 116.10533232, "POINT_Y": 39.910116959699998 }, "geometry": { "type": "Point", "coordinates": [ 116.105332319730792, 39.910116959729976 ] } },
{ "type": "Feature", "properties": { "Name": "育园小学", "Name_PY": "YuYuan XiaoXue", "Ctype": "小学", "Ntype": "141203", "Code": "110109", "Address": "新桥南大街２１－１", "Telephone": null, "label": "育园小学", "POINT_X": 116.1052362, "POINT_Y": 39.9318291003 }, "geometry": { "type": "Point", "coordinates": [ 116.105236200190575, 39.931829100332777 ] } },
{ "type": "Feature", "properties": { "Name": "三家店小学", "Name_PY": "SanJiaDian XiaoXue", "Ctype": "小学", "Ntype": "141203", "Code": "110109", "Address": "三家店中街８号", "Telephone": null, "label": "三家店小学", "POINT_X": 116.1069102, "POINT_Y": 39.965052240299997 }, "geometry": { "type": "Point", "coordinates": [ 116.106910200045718, 39.965052240268733 ] } },
{ "type": "Feature", "properties": { "Name": "北京市石景山区五里坨小学", "Name_PY": "BeiJingShi ShiJingShanQu WuLiTuo XiaoXue", "Ctype": "小学", "Ntype": "141203", "Code": "110107", "Address": "车站路７号", "Telephone": null, "label": "北京市石景山区五里坨小学", "POINT_X": 116.12604636, "POINT_Y": 39.9549969897 }, "geometry": { "type": "Point", "coordinates": [ 116.126046360351324, 39.954996989719348 ] } },
{ "type": "Feature", "properties": { "Name": "北京市门头沟区三家店铁小", "Name_PY": "BeiJingShi MenTouGouQu SanJia Dian TieXiao", "Ctype": "小学", "Ntype": "141203", "Code": "110109", "Address": "新建路２９", "Telephone": null, "label": "北京市门头沟区三家店铁小", "POINT_X": 116.11439712000001, "POINT_Y": 39.953846249599998 }, "geometry": { "type": "Point", "coordinates": [ 116.114397119931255, 39.953846249604794 ] } },
{ "type": "Feature", "properties": { "Name": "大峪第二小学", "Name_PY": "DaYu DiEr XiaoXue", "Ctype": "小学", "Ntype": "141203", "Code": "110109", "Address": "新桥路１８", "Telephone": null, "label": "大峪第二小学", "POINT_X": 116.10013248, "POINT_Y": 39.938200830299998 }, "geometry": { "type": "Point", "coordinates": [ 116.100132480129901, 39.93820083030414 ] } },
{ "type": "Feature", "properties": { "Name": "城子小学（城子大街）", "Name_PY": "ChengZi XiaoXue (ChengZi DaJie)", "Ctype": "小学", "Ntype": "141203", "Code": "110109", "Address": "城子大街１０号", "Telephone": "010-69842157", "label": "城子小学（城子大街）", "POINT_X": 116.09896968, "POINT_Y": 39.956938830200002 }, "geometry": { "type": "Point", "coordinates": [ 116.098969680106734, 39.956938830162926 ] } },
{ "type": "Feature", "properties": { "Name": "北京市门头沟区河南街小学", "Name_PY": "BeiJingShi MenTouGouQu HeNanJie XiaoXue", "Ctype": "小学", "Ntype": "141203", "Code": "110109", "Address": "门头沟路９２号", "Telephone": "010-69842293", "label": "北京市门头沟区河南街小学", "POINT_X": 116.07503652, "POINT_Y": 39.93606414 }, "geometry": { "type": "Point", "coordinates": [ 116.075036519819605, 39.936064140048074 ] } },
{ "type": "Feature", "properties": { "Name": "黑山小学", "Name_PY": "HeiShan XiaoXue", "Ctype": "小学", "Ntype": "141203", "Code": "110109", "Address": "黑山北小街３", "Telephone": null, "label": "黑山小学", "POINT_X": 116.0935092, "POINT_Y": 39.9422069998 }, "geometry": { "type": "Point", "coordinates": [ 116.093509199889695, 39.942206999753296 ] } },
{ "type": "Feature", "properties": { "Name": "北京市门头沟区圈门小学", "Name_PY": "BeiJingShi MenTouGouQu QuanMen XiaoXue", "Ctype": "小学", "Ntype": "141203", "Code": "110109", "Address": "北涧沟１８６号", "Telephone": null, "label": "北京市门头沟区圈门小学", "POINT_X": 116.05928832, "POINT_Y": 39.930892649800001 }, "geometry": { "type": "Point", "coordinates": [ 116.059288319700272, 39.930892649776013 ] } },
{ "type": "Feature", "properties": { "Name": "东辛房街道办事处社区教育中心圈门小学分中心", "Name_PY": "DongXinFang JieDao BanShiChu SheQu JiaoYu ZhongXin QuanMen XiaoXue FenZhongXin", "Ctype": "小学", "Ntype": "141203", "Code": "110109", "Address": "北涧沟１８６号", "Telephone": null, "label": "东辛房街道办事处社区教育中心圈门小学分中心", "POINT_X": 116.0592822, "POINT_Y": 39.930900480200002 }, "geometry": { "type": "Point", "coordinates": [ 116.059282199813765, 39.930900480173079 ] } },
{ "type": "Feature", "properties": { "Name": "门头沟区东辛房小学", "Name_PY": "MenTouGouQu DongXinFang XiaoXue", "Ctype": "小学", "Ntype": "141203", "Code": "110109", "Address": "东辛房街１９", "Telephone": null, "label": "门头沟区东辛房小学", "POINT_X": 116.07729552000001, "POINT_Y": 39.934134179600001 }, "geometry": { "type": "Point", "coordinates": [ 116.077295519672589, 39.934134179648709 ] } },
{ "type": "Feature", "properties": { "Name": "北京市门头沟区琉璃渠小学", "Name_PY": "BeiJingShi MenTouGouQu LiuLi Qu XiaoXue", "Ctype": "小学", "Ntype": "141203", "Code": "110109", "Address": "琉璃渠后街１５５", "Telephone": null, "label": "北京市门头沟区琉璃渠小学", "POINT_X": 116.08898184, "POINT_Y": 39.97079991 }, "geometry": { "type": "Point", "coordinates": [ 116.088981840039992, 39.970799909987932 ] } },
{ "type": "Feature", "properties": { "Name": "北京市门头沟区龙泉雾小学", "Name_PY": "BeiJingShi MenTouGouQu LongQuanWu XiaoXue", "Ctype": "小学", "Ntype": "141203", "Code": "110109", "Address": null, "Telephone": null, "label": "北京市门头沟区龙泉雾小学", "POINT_X": 116.08632504000001, "POINT_Y": 39.983225580099997 }, "geometry": { "type": "Point", "coordinates": [ 116.086325040368365, 39.983225580096473 ] } },
{ "type": "Feature", "properties": { "Name": "宜宾县希望小学", "Name_PY": "YiBinXian XiWang XiaoXue", "Ctype": "小学", "Ntype": "141203", "Code": "110109", "Address": null, "Telephone": null, "label": "宜宾县希望小学", "POINT_X": 116.02163412, "POINT_Y": 39.968091810300002 }, "geometry": { "type": "Point", "coordinates": [ 116.02163412021855, 39.968091810288854 ] } },
{ "type": "Feature", "properties": { "Name": "坡头小学", "Name_PY": "PoTou XiaoXue", "Ctype": "小学", "Ntype": "141203", "Code": "110109", "Address": "中门寺街２５", "Telephone": null, "label": "坡头小学", "POINT_X": 116.09548128, "POINT_Y": 39.934036710199997 }, "geometry": { "type": "Point", "coordinates": [ 116.09548128003712, 39.934036710226053 ] } },
{ "type": "Feature", "properties": { "Name": "北京市石景山区麻峪小学", "Name_PY": "BeiJingShi ShiJingShanQu MaYu XiaoXue", "Ctype": "小学", "Ntype": "141203", "Code": "110107", "Address": "麻峪村", "Telephone": "010-88991876", "label": "北京市石景山区麻峪小学", "POINT_X": 116.12807064, "POINT_Y": 39.9327269403 }, "geometry": { "type": "Point", "coordinates": [ 116.128070639848261, 39.932726940296106 ] } },
{ "type": "Feature", "properties": { "Name": "城子小学（蓝龙小区西南）", "Name_PY": "ChengZi XiaoXue (LanLong XiaoQu XiNan)", "Ctype": "小学", "Ntype": "141203", "Code": "110109", "Address": "城子大街１０号", "Telephone": null, "label": "城子小学（蓝龙小区西南）", "POINT_X": 116.09947044, "POINT_Y": 39.9533319003 }, "geometry": { "type": "Point", "coordinates": [ 116.09947043970908, 39.953331900346996 ] } },
{ "type": "Feature", "properties": { "Name": "北京中杉学校招生咨询", "Name_PY": "BeiJing ZhongShan XueXiao ZhaoSheng ZiXun", "Ctype": "小学", "Ntype": "141203", "Code": "110107", "Address": "石门路３２７", "Telephone": "010-88173625|88980098|88980588", "label": "北京中杉学校招生咨询", "POINT_X": 116.124534, "POINT_Y": 39.957557040300003 }, "geometry": { "type": "Point", "coordinates": [ 116.124534000144081, 39.957557040325185 ] } },
{ "type": "Feature", "properties": { "Name": "海淀红星小学", "Name_PY": "HaiDian HongXing XiaoXue", "Ctype": "小学", "Ntype": "141203", "Code": "110108", "Address": "北安河路３６", "Telephone": null, "label": "海淀红星小学", "POINT_X": 116.12158704, "POINT_Y": 40.081739669699999 }, "geometry": { "type": "Point", "coordinates": [ 116.12158703961029, 40.081739669650062 ] } },
{ "type": "Feature", "properties": { "Name": "北京市海淀区北安河中心小学", "Name_PY": "BeiJingShi HaiDianQu BeiAn He ZhongXin XiaoXue", "Ctype": "小学", "Ntype": "141203", "Code": "110108", "Address": "环谷园２号", "Telephone": "010-62456423", "label": "北京市海淀区北安河中心小学", "POINT_X": 116.11796256, "POINT_Y": 40.0665509998 }, "geometry": { "type": "Point", "coordinates": [ 116.117962560423848, 40.066550999828848 ] } },
{ "type": "Feature", "properties": { "Name": "北京市海淀区周家巷小学", "Name_PY": "BeiJingShi HaiDianQu ZhouJiaXiang XiaoXue", "Ctype": "小学", "Ntype": "141203", "Code": "110108", "Address": "军庄路１", "Telephone": null, "label": "北京市海淀区周家巷小学", "POINT_X": 116.12946636, "POINT_Y": 40.054814279699997 }, "geometry": { "type": "Point", "coordinates": [ 116.129466359784715, 40.054814279655318 ] } },
{ "type": "Feature", "properties": { "Name": "门头沟军庄中心西杨坨小学", "Name_PY": "MenTouGou JunZhuang ZhongXin XiYangTuo XiaoXue", "Ctype": "小学", "Ntype": "141203", "Code": "110109", "Address": null, "Telephone": null, "label": "门头沟军庄中心西杨坨小学", "POINT_X": 116.11087164, "POINT_Y": 40.006648439899998 }, "geometry": { "type": "Point", "coordinates": [ 116.110871639914308, 40.006648439873629 ] } },
{ "type": "Feature", "properties": { "Name": "凤凰小学", "Name_PY": "FengHuang XiaoXue", "Ctype": "小学", "Ntype": "141203", "Code": "110108", "Address": null, "Telephone": null, "label": "凤凰小学", "POINT_X": 116.11388556, "POINT_Y": 40.109759909600001 }, "geometry": { "type": "Point", "coordinates": [ 116.113885560370363, 40.109759909592185 ] } },
{ "type": "Feature", "properties": { "Name": "北京市海淀区台头小学", "Name_PY": "BeiJingShi HaiDianQu TaiTou XiaoXue", "Ctype": "小学", "Ntype": "141203", "Code": "110108", "Address": "苏家坨镇聂各庄路１３号", "Telephone": null, "label": "北京市海淀区台头小学", "POINT_X": 116.11755972, "POINT_Y": 40.105793070200001 }, "geometry": { "type": "Point", "coordinates": [ 116.117559719905216, 40.105793070194068 ] } },
{ "type": "Feature", "properties": { "Name": "北京青年联合会希望小学", "Name_PY": "BeiJing QingNian LianHeHui XiWang XiaoXue", "Ctype": "小学", "Ntype": "141203", "Code": "110114", "Address": null, "Telephone": null, "label": "北京青年联合会希望小学", "POINT_X": 116.03799, "POINT_Y": 40.159053000100002 }, "geometry": { "type": "Point", "coordinates": [ 116.037990000338255, 40.159053000095923 ] } },
{ "type": "Feature", "properties": { "Name": "昌平区流村中心西峰山小学", "Name_PY": "ChangPingQu LiuCun ZhongXin XiFengShan XiaoXue", "Ctype": "小学", "Ntype": "141203", "Code": "110114", "Address": null, "Telephone": null, "label": "昌平区流村中心西峰山小学", "POINT_X": 116.03799036, "POINT_Y": 40.159052099900002 }, "geometry": { "type": "Point", "coordinates": [ 116.03799036006717, 40.159052099874543 ] } },
{ "type": "Feature", "properties": { "Name": "北京市昌平区高崖口中心小学", "Name_PY": "BeiJingShi ChangPingQu GaoYaKou ZhongXin XiaoXue", "Ctype": "小学", "Ntype": "141203", "Code": "110114", "Address": null, "Telephone": null, "label": "北京市昌平区高崖口中心小学", "POINT_X": 116.01621036, "POINT_Y": 40.138730910100001 }, "geometry": { "type": "Point", "coordinates": [ 116.016210360220043, 40.138730910103448 ] } },
{ "type": "Feature", "properties": { "Name": "流村中心小学", "Name_PY": "LiuCun ZhongXin XiaoXue", "Ctype": "小学", "Ntype": "141203", "Code": "110114", "Address": null, "Telephone": null, "label": "流村中心小学", "POINT_X": 116.0659278, "POINT_Y": 40.17009285 }, "geometry": { "type": "Point", "coordinates": [ 116.065927800327813, 40.170092850005062 ] } },
{ "type": "Feature", "properties": { "Name": "土楼小学", "Name_PY": "TuLou XiaoXue", "Ctype": "小学", "Ntype": "141203", "Code": "110114", "Address": null, "Telephone": null, "label": "土楼小学", "POINT_X": 116.12289708, "POINT_Y": 40.185668519700002 }, "geometry": { "type": "Point", "coordinates": [ 116.122897080236157, 40.185668519686487 ] } },
{ "type": "Feature", "properties": { "Name": "南口机车车辆机械厂职工子弟小学", "Name_PY": "NanKou JiChe CheLiang JiXieChang ZhiGongZiDi XiaoXue", "Ctype": "小学", "Ntype": "141203", "Code": "110114", "Address": null, "Telephone": null, "label": "南口机车车辆机械厂职工子弟小学", "POINT_X": 116.12990412000001, "POINT_Y": 40.245214229600002 }, "geometry": { "type": "Point", "coordinates": [ 116.129904120079118, 40.245214229553085 ] } },
{ "type": "Feature", "properties": { "Name": "昌平区桃洼学校桃洼小学", "Name_PY": "ChangPingQu TaoWa XueXiao TaoWa XiaoXue", "Ctype": "小学", "Ntype": "141203", "Code": "110114", "Address": null, "Telephone": null, "label": "昌平区桃洼学校桃洼小学", "POINT_X": 116.09066448, "POINT_Y": 40.228320509900001 }, "geometry": { "type": "Point", "coordinates": [ 116.090664479682005, 40.228320509883702 ] } },
{ "type": "Feature", "properties": { "Name": "北京市昌平区南口镇小学", "Name_PY": "BeiJingShi ChangPingQu NanKouZhen XiaoXue", "Ctype": "小学", "Ntype": "141203", "Code": "110114", "Address": "南口镇兴隆街３３号", "Telephone": null, "label": "北京市昌平区南口镇小学", "POINT_X": 116.12839824, "POINT_Y": 40.236447870299997 }, "geometry": { "type": "Point", "coordinates": [ 116.128398240386559, 40.236447870273025 ] } },
{ "type": "Feature", "properties": { "Name": "昌平区桃洼学校檀峪小学", "Name_PY": "ChangPingQu TaoWa XueXiao TanYu XiaoXue", "Ctype": "小学", "Ntype": "141203", "Code": "110114", "Address": null, "Telephone": null, "label": "昌平区桃洼学校檀峪小学", "POINT_X": 116.07553044, "POINT_Y": 40.223600910099996 }, "geometry": { "type": "Point", "coordinates": [ 116.075530440077841, 40.223600910054017 ] } },
{ "type": "Feature", "properties": { "Name": "八一古将小学", "Name_PY": "BaYi GuJiang XiaoXue", "Ctype": "小学", "Ntype": "141203", "Code": "110114", "Address": "古将村４３９号", "Telephone": null, "label": "八一古将小学", "POINT_X": 116.04133296000001, "POINT_Y": 40.19742414 }, "geometry": { "type": "Point", "coordinates": [ 116.041332960247928, 40.197424140012117 ] } },
{ "type": "Feature", "properties": { "Name": "昌平区南口中心小学", "Name_PY": "ChangPingQu NanKou ZhongXin XiaoXue", "Ctype": "小学", "Ntype": "141203", "Code": "110114", "Address": "南口村城外５号", "Telephone": null, "label": "昌平区南口中心小学", "POINT_X": 116.12465244000001, "POINT_Y": 40.25370924 }, "geometry": { "type": "Point", "coordinates": [ 116.124652439958254, 40.253709239989462 ] } },
{ "type": "Feature", "properties": { "Name": "延庆县西二道河中心小学", "Name_PY": "YanQingXian Xi ErDaoHe ZhongXin XiaoXue", "Ctype": "小学", "Ntype": "141203", "Code": "110229", "Address": null, "Telephone": null, "label": "延庆县西二道河中心小学", "POINT_X": 116.08017696, "POINT_Y": 40.406369310199999 }, "geometry": { "type": "Point", "coordinates": [ 116.080176960098697, 40.406369310195544 ] } },
{ "type": "Feature", "properties": { "Name": "延庆县大榆树中心小学", "Name_PY": "YanQingXian DaYuShu ZhongXin XiaoXue", "Ctype": "小学", "Ntype": "141203", "Code": "110229", "Address": "大榆树村２５９号", "Telephone": null, "label": "延庆县大榆树中心小学", "POINT_X": 116.02107756, "POINT_Y": 40.433564069600003 }, "geometry": { "type": "Point", "coordinates": [ 116.021077560381173, 40.433564069626186 ] } },
{ "type": "Feature", "properties": { "Name": "延庆县井庄镇中心小学", "Name_PY": "YanQingXian JingZhuangZhen ZhongXin XiaoXue", "Ctype": "小学", "Ntype": "141203", "Code": "110229", "Address": "井庄镇井庄村", "Telephone": null, "label": "延庆县井庄镇中心小学", "POINT_X": 116.09459892, "POINT_Y": 40.46802462 }, "geometry": { "type": "Point", "coordinates": [ 116.09459892010409, 40.468024620040239 ] } },
{ "type": "Feature", "properties": { "Name": "延庆县沈家营中心小学", "Name_PY": "YanQingXian ShenJiaYing ZhongXin XiaoXue", "Ctype": "小学", "Ntype": "141203", "Code": "110229", "Address": "沈家营镇沈家营村南", "Telephone": null, "label": "延庆县沈家营中心小学", "POINT_X": 116.04618144, "POINT_Y": 40.484478330199998 }, "geometry": { "type": "Point", "coordinates": [ 116.046181440121472, 40.484478330210834 ] } },
{ "type": "Feature", "properties": { "Name": "延庆县八里庄中心小学广积屯完小", "Name_PY": "YanQingXian BaLiZhuang ZhongXin XiaoXue GuangJiTun WanXiao", "Ctype": "小学", "Ntype": "141203", "Code": "110229", "Address": "延庆镇", "Telephone": null, "label": "延庆县八里庄中心小学广积屯完小", "POINT_X": 116.00827452, "POINT_Y": 40.482310410099998 }, "geometry": { "type": "Point", "coordinates": [ 116.00827452035287, 40.482310410097398 ] } },
{ "type": "Feature", "properties": { "Name": "旧县小学", "Name_PY": "JiuXian XiaoXue", "Ctype": "小学", "Ntype": "141203", "Code": "110229", "Address": "旧县镇", "Telephone": null, "label": "旧县小学", "POINT_X": 116.10050076, "POINT_Y": 40.554714690399997 }, "geometry": { "type": "Point", "coordinates": [ 116.100500759702413, 40.554714690430671 ] } },
{ "type": "Feature", "properties": { "Name": "大柏老中心小学", "Name_PY": "DaBaiLao ZhongXin XiaoXue", "Ctype": "小学", "Ntype": "141203", "Code": "110229", "Address": "旧县镇大柏老村西", "Telephone": null, "label": "大柏老中心小学", "POINT_X": 116.07162588, "POINT_Y": 40.523683950200002 }, "geometry": { "type": "Point", "coordinates": [ 116.071625879630687, 40.523683950154236 ] } },
{ "type": "Feature", "properties": { "Name": "大兴区北臧村镇诸营小学", "Name_PY": "DaXingQu BeiZangCunZhen ZhuYing XiaoXue", "Ctype": "小学", "Ntype": "141203", "Code": "110115", "Address": "北臧村", "Telephone": null, "label": "大兴区北臧村镇诸营小学", "POINT_X": 116.24491656, "POINT_Y": 39.662026020399999 }, "geometry": { "type": "Point", "coordinates": [ 116.244916560351044, 39.662026020384587 ] } },
{ "type": "Feature", "properties": { "Name": "大兴区北臧村镇明德小学", "Name_PY": "DaXingQu BeiZangCunZhen MingDe XiaoXue", "Ctype": "小学", "Ntype": "141203", "Code": "110115", "Address": "北臧村", "Telephone": null, "label": "大兴区北臧村镇明德小学", "POINT_X": 116.24491656, "POINT_Y": 39.662026020399999 }, "geometry": { "type": "Point", "coordinates": [ 116.244916560351044, 39.662026020384587 ] } },
{ "type": "Feature", "properties": { "Name": "务滋完全小学", "Name_PY": "WuZi WanQuan XiaoXue", "Ctype": "小学", "Ntype": "141203", "Code": "110111", "Address": "琉璃河", "Telephone": null, "label": "务滋完全小学", "POINT_X": 116.15115852, "POINT_Y": 39.615655230100003 }, "geometry": { "type": "Point", "coordinates": [ 116.151158520149693, 39.615655230104835 ] } },
{ "type": "Feature", "properties": { "Name": "葫芦垡中心小学", "Name_PY": "HuLuFa ZhongXin XiaoXue", "Ctype": "小学", "Ntype": "141203", "Code": "110111", "Address": "葫芦垡村祥和路２", "Telephone": null, "label": "葫芦垡中心小学", "POINT_X": 116.21633112000001, "POINT_Y": 39.708708030099999 }, "geometry": { "type": "Point", "coordinates": [ 116.216331119885353, 39.708708030051582 ] } },
{ "type": "Feature", "properties": { "Name": "西石羊完全小学", "Name_PY": "XiShiYang WanQuan XiaoXue", "Ctype": "小学", "Ntype": "141203", "Code": "110111", "Address": "良乡镇", "Telephone": null, "label": "西石羊完全小学", "POINT_X": 116.16706152, "POINT_Y": 39.679302870100003 }, "geometry": { "type": "Point", "coordinates": [ 116.167061519673439, 39.67930287013138 ] } },
{ "type": "Feature", "properties": { "Name": "北京市房山区阎仙垡完全小学", "Name_PY": "BeiJingShi FangShanQu YanXianFa WanQuan XiaoXue", "Ctype": "小学", "Ntype": "141203", "Code": "110111", "Address": null, "Telephone": null, "label": "北京市房山区阎仙垡完全小学", "POINT_X": 116.2264338, "POINT_Y": 39.727254690199999 }, "geometry": { "type": "Point", "coordinates": [ 116.226433799780125, 39.727254690151881 ] } },
{ "type": "Feature", "properties": { "Name": "张家场小学", "Name_PY": "ZhangJiaChang XiaoXue", "Ctype": "小学", "Ntype": "141203", "Code": "110111", "Address": "长阳镇牛家场", "Telephone": null, "label": "张家场小学", "POINT_X": 116.20243332, "POINT_Y": 39.74736213 }, "geometry": { "type": "Point", "coordinates": [ 116.20243331984193, 39.74736212995839 ] } },
{ "type": "Feature", "properties": { "Name": "希望学校小学部", "Name_PY": "XiWang XueXiao XiaoXueBu", "Ctype": "小学", "Ntype": "141203", "Code": "110111", "Address": null, "Telephone": null, "label": "希望学校小学部", "POINT_X": 116.14308336000001, "POINT_Y": 39.722227829799998 }, "geometry": { "type": "Point", "coordinates": [ 116.143083360009086, 39.72222782975058 ] } },
{ "type": "Feature", "properties": { "Name": "黑古台民族小学", "Name_PY": "HeiGuTai MinZu XiaoXue", "Ctype": "小学", "Ntype": "141203", "Code": "110111", "Address": "良乡镇", "Telephone": null, "label": "黑古台民族小学", "POINT_X": 116.148969, "POINT_Y": 39.70417977 }, "geometry": { "type": "Point", "coordinates": [ 116.148969000119337, 39.704179769980442 ] } },
{ "type": "Feature", "properties": { "Name": "良乡第二小学", "Name_PY": "LiangXiang DiEr XiaoXue", "Ctype": "小学", "Ntype": "141203", "Code": "110111", "Address": "北秀街２７", "Telephone": null, "label": "良乡第二小学", "POINT_X": 116.13870792, "POINT_Y": 39.737133539600002 }, "geometry": { "type": "Point", "coordinates": [ 116.138707919934632, 39.737133539581237 ] } },
{ "type": "Feature", "properties": { "Name": "北京市房山区良乡小学", "Name_PY": "BeiJingShi FangShanQu LiangXiang XiaoXue", "Ctype": "小学", "Ntype": "141203", "Code": "110111", "Address": "良乡中路１２", "Telephone": null, "label": "北京市房山区良乡小学", "POINT_X": 116.14440456, "POINT_Y": 39.730813919900001 }, "geometry": { "type": "Point", "coordinates": [ 116.1444045603223, 39.730813919926504 ] } },
{ "type": "Feature", "properties": { "Name": "北京市房山区良乡第三小学", "Name_PY": "BeiJingShi FangShanQu LiangXiang DiSan XiaoXue", "Ctype": "小学", "Ntype": "141203", "Code": "110111", "Address": "西潞园小区三里１１号", "Telephone": "010-89355432", "label": "北京市房山区良乡第三小学", "POINT_X": 116.131806, "POINT_Y": 39.733867350300002 }, "geometry": { "type": "Point", "coordinates": [ 116.131806000046936, 39.733867350298055 ] } },
{ "type": "Feature", "properties": { "Name": "首都师范大学附属良乡实验学校", "Name_PY": "ShouDuShiFanDaXue FuShu LiangXiang ShiYan XueXiao", "Ctype": "小学", "Ntype": "141203", "Code": "110111", "Address": "良乡镇建华路１０号", "Telephone": null, "label": "首都师范大学附属良乡实验学校", "POINT_X": 116.14613076000001, "POINT_Y": 39.742725419700001 }, "geometry": { "type": "Point", "coordinates": [ 116.146130760426331, 39.742725419742385 ] } },
{ "type": "Feature", "properties": { "Name": "北京市房山区良乡第五小学", "Name_PY": "BeiJingShi FangShanQu LiangXiang DiWu XiaoXue", "Ctype": "小学", "Ntype": "141203", "Code": "110111", "Address": "良乡镇建华路１０号", "Telephone": null, "label": "北京市房山区良乡第五小学", "POINT_X": 116.14619916, "POINT_Y": 39.742683749699999 }, "geometry": { "type": "Point", "coordinates": [ 116.146199160163178, 39.742683749655384 ] } },
{ "type": "Feature", "properties": { "Name": "官道中心小学", "Name_PY": "GuanDao ZhongXin XiaoXue", "Ctype": "小学", "Ntype": "141203", "Code": "110111", "Address": null, "Telephone": null, "label": "官道中心小学", "POINT_X": 116.14895964, "POINT_Y": 39.704227020399998 }, "geometry": { "type": "Point", "coordinates": [ 116.148959639975487, 39.704227020360747 ] } },
{ "type": "Feature", "properties": { "Name": "北京市丰台区南宫中心小学", "Name_PY": "BeiJingShi FengTaiQu NanGong ZhongXin XiaoXue", "Ctype": "小学", "Ntype": "141203", "Code": "110106", "Address": "五环以外王佐乡南宫村", "Telephone": null, "label": "北京市丰台区南宫中心小学", "POINT_X": 116.152065, "POINT_Y": 39.80344059 }, "geometry": { "type": "Point", "coordinates": [ 116.152064999899835, 39.803440590011292 ] } },
{ "type": "Feature", "properties": { "Name": "长辛店第一小学", "Name_PY": "ChangXinDian DiYi XiaoXue", "Ctype": "小学", "Ntype": "141203", "Code": "110106", "Address": "长辛店大街１４５号", "Telephone": "010-83876144", "label": "长辛店第一小学", "POINT_X": 116.2068822, "POINT_Y": 39.82309776 }, "geometry": { "type": "Point", "coordinates": [ 116.206882200353334, 39.823097759953725 ] } },
{ "type": "Feature", "properties": { "Name": "北京长辛店铁路小学", "Name_PY": "BeiJing ChangXinDian TieLu XiaoXue", "Ctype": "小学", "Ntype": "141203", "Code": "110106", "Address": "崔村一里８号", "Telephone": null, "label": "北京长辛店铁路小学", "POINT_X": 116.1957258, "POINT_Y": 39.831092099800003 }, "geometry": { "type": "Point", "coordinates": [ 116.195725800105606, 39.83109209982058 ] } },
{ "type": "Feature", "properties": { "Name": "北京市丰台区长辛店第七小学", "Name_PY": "BeiJingShi FengTaiQu ChangXinDian DiQi XiaoXue", "Ctype": "小学", "Ntype": "141203", "Code": "110106", "Address": "长辛店陈庄子", "Telephone": null, "label": "北京市丰台区长辛店第七小学", "POINT_X": 116.20361736, "POINT_Y": 39.830393340100002 }, "geometry": { "type": "Point", "coordinates": [ 116.203617360053158, 39.830393340080605 ] } },
{ "type": "Feature", "properties": { "Name": "西营完全小学", "Name_PY": "XiYing WanQuan XiaoXue", "Ctype": "小学", "Ntype": "141203", "Code": "110111", "Address": null, "Telephone": null, "label": "西营完全小学", "POINT_X": 116.22334572, "POINT_Y": 39.757053330399998 }, "geometry": { "type": "Point", "coordinates": [ 116.22334572032878, 39.757053330446922 ] } },
{ "type": "Feature", "properties": { "Name": "北京市丰台区长辛店第二小学", "Name_PY": "BeiJingShi FengTaiQu ChangXinDian DiEr XiaoXue", "Ctype": "小学", "Ntype": "141203", "Code": "110106", "Address": "长辛店大街２６２", "Telephone": null, "label": "北京市丰台区长辛店第二小学", "POINT_X": 116.20661292, "POINT_Y": 39.819939660199999 }, "geometry": { "type": "Point", "coordinates": [ 116.206612919950317, 39.819939660187231 ] } },
{ "type": "Feature", "properties": { "Name": "北京市房山区长阳中心小学", "Name_PY": "BeiJingShi FangShanQu ChangYang ZhongXin XiaoXue", "Ctype": "小学", "Ntype": "141203", "Code": "110111", "Address": null, "Telephone": null, "label": "北京市房山区长阳中心小学", "POINT_X": 116.17070868, "POINT_Y": 39.759437790200003 }, "geometry": { "type": "Point", "coordinates": [ 116.170708679761788, 39.759437790221909 ] } },
{ "type": "Feature", "properties": { "Name": "北京小学长阳分校", "Name_PY": "BeiJing XiaoXue ChangYang FenXiao", "Ctype": "小学", "Ntype": "141203", "Code": "110111", "Address": null, "Telephone": null, "label": "北京小学长阳分校", "POINT_X": 116.21513052, "POINT_Y": 39.760944390299997 }, "geometry": { "type": "Point", "coordinates": [ 116.215130519557874, 39.760944390271447 ] } },
{ "type": "Feature", "properties": { "Name": "大宁学校", "Name_PY": "DaNing XueXiao", "Ctype": "小学", "Ntype": "141203", "Code": "110111", "Address": null, "Telephone": null, "label": "大宁学校", "POINT_X": 116.21651256, "POINT_Y": 39.8101152602 }, "geometry": { "type": "Point", "coordinates": [ 116.216512559906732, 39.810115260211148 ] } },
{ "type": "Feature", "properties": { "Name": "北京市丰台区长辛店第二小学分校", "Name_PY": "BeiJingShi FengTaiQu ChangXinDian DiEr XiaoXue FenXiao", "Ctype": "小学", "Ntype": "141203", "Code": "110106", "Address": "西后街甲５３", "Telephone": null, "label": "北京市丰台区长辛店第二小学分校", "POINT_X": 116.20464768, "POINT_Y": 39.820500810200002 }, "geometry": { "type": "Point", "coordinates": [ 116.204647680046492, 39.820500810164333 ] } },
{ "type": "Feature", "properties": { "Name": "长辛店学校小学分部", "Name_PY": "ChangXinDian XueXiao XiaoXue FenBu", "Ctype": "小学", "Ntype": "141203", "Code": "110106", "Address": null, "Telephone": null, "label": "长辛店学校小学分部", "POINT_X": 116.19147132000001, "POINT_Y": 39.81257487 }, "geometry": { "type": "Point", "coordinates": [ 116.191471319745688, 39.812574870034268 ] } },
{ "type": "Feature", "properties": { "Name": "北京市丰台区云岗第一小学", "Name_PY": "BeiJingShi FengTaiQu YunGang DiYi XiaoXue", "Ctype": "小学", "Ntype": "141203", "Code": "110106", "Address": null, "Telephone": null, "label": "北京市丰台区云岗第一小学", "POINT_X": 116.16507828, "POINT_Y": 39.813735960400003 }, "geometry": { "type": "Point", "coordinates": [ 116.165078279838781, 39.813735960446252 ] } },
{ "type": "Feature", "properties": { "Name": "石景山区师范学校附属小学", "Name_PY": "ShiJingShanQu ShiFan XueXiao FuShu XiaoXue", "Ctype": "小学", "Ntype": "141203", "Code": "110107", "Address": null, "Telephone": "010-68653826", "label": "石景山区师范学校附属小学", "POINT_X": 116.23382892, "POINT_Y": 39.900301200400001 }, "geometry": { "type": "Point", "coordinates": [ 116.233828919569078, 39.900301200440083 ] } },
{ "type": "Feature", "properties": { "Name": "北京市丰台区卢沟桥第一小学校", "Name_PY": "BeiJingShi FengTaiQu LuGouQiao DiYi XiaoXueXiao", "Ctype": "小学", "Ntype": "141203", "Code": "110106", "Address": "卢沟桥城内街甲２９号附近", "Telephone": "010-83891403", "label": "北京市丰台区卢沟桥第一小学校", "POINT_X": 116.22405348, "POINT_Y": 39.851192249699999 }, "geometry": { "type": "Point", "coordinates": [ 116.224053479584427, 39.851192249722601 ] } },
{ "type": "Feature", "properties": { "Name": "长辛店中心小学", "Name_PY": "ChangXinDian ZhongXin XiaoXue", "Ctype": "小学", "Ntype": "141203", "Code": "110106", "Address": "长辛店乡槐树岭", "Telephone": null, "label": "长辛店中心小学", "POINT_X": 116.17103304, "POINT_Y": 39.861870660299999 }, "geometry": { "type": "Point", "coordinates": [ 116.171033040042857, 39.86187066030277 ] } },
{ "type": "Feature", "properties": { "Name": "石景山区玉泉路小学", "Name_PY": "ShiJingShanQu YuQuan Lu XiaoXue", "Ctype": "小学", "Ntype": "141203", "Code": "110107", "Address": "玉泉路西何家坟北玉泉西街", "Telephone": null, "label": "石景山区玉泉路小学", "POINT_X": 116.24554548, "POINT_Y": 39.912845039700002 }, "geometry": { "type": "Point", "coordinates": [ 116.245545479640214, 39.912845039666877 ] } },
{ "type": "Feature", "properties": { "Name": "石景山区第二实验小学", "Name_PY": "ShiJingShanQu DiEr ShiYan XiaoXue", "Ctype": "小学", "Ntype": "141203", "Code": "110107", "Address": "老山西街１", "Telephone": null, "label": "石景山区第二实验小学", "POINT_X": 116.21506428000001, "POINT_Y": 39.9097402202 }, "geometry": { "type": "Point", "coordinates": [ 116.215064279992589, 39.909740220235051 ] } },
{ "type": "Feature", "properties": { "Name": "北京师大实验小学分校", "Name_PY": "BeiJing ShiDa ShiYan XiaoXue FenXiao", "Ctype": "小学", "Ntype": "141203", "Code": "110106", "Address": null, "Telephone": null, "label": "北京师大实验小学分校", "POINT_X": 116.23909752, "POINT_Y": 39.840408450300004 }, "geometry": { "type": "Point", "coordinates": [ 116.239097520434257, 39.840408450289829 ] } },
{ "type": "Feature", "properties": { "Name": "晓月苑小学", "Name_PY": "XiaoYueYuan XiaoXue", "Ctype": "小学", "Ntype": "141203", "Code": "110106", "Address": "卢沟桥晓月苑小区１里", "Telephone": "010-83218263", "label": "晓月苑小学", "POINT_X": 116.23928184, "POINT_Y": 39.84040044 }, "geometry": { "type": "Point", "coordinates": [ 116.239281840084914, 39.840400440028361 ] } },
{ "type": "Feature", "properties": { "Name": "北京市石景山区中小学劳技中心", "Name_PY": "BeiJingShi ShiJingShanQu ZhongXiaoXue LaoJi ZhongXin", "Ctype": "小学", "Ntype": "141203", "Code": "110107", "Address": "老山西里甲３０", "Telephone": null, "label": "北京市石景山区中小学劳技中心", "POINT_X": 116.2189098, "POINT_Y": 39.9100388401 }, "geometry": { "type": "Point", "coordinates": [ 116.218909799947369, 39.910038840120421 ] } },
{ "type": "Feature", "properties": { "Name": "北京市丰台区大瓦窑小学", "Name_PY": "BeiJingShi FengTaiQu DaWaYao XiaoXue", "Ctype": "小学", "Ntype": "141203", "Code": "110106", "Address": null, "Telephone": null, "label": "北京市丰台区大瓦窑小学", "POINT_X": 116.24027364, "POINT_Y": 39.862712879900002 }, "geometry": { "type": "Point", "coordinates": [ 116.240273640316332, 39.862712879895525 ] } },
{ "type": "Feature", "properties": { "Name": "北京市石景山区京原小学", "Name_PY": "BeiJingShi ShiJingShanQu JingYuan XiaoXue", "Ctype": "小学", "Ntype": "141203", "Code": "110107", "Address": "鲁谷路６６号", "Telephone": null, "label": "北京市石景山区京原小学", "POINT_X": 116.21602836, "POINT_Y": 39.90289608 }, "geometry": { "type": "Point", "coordinates": [ 116.216028360420523, 39.902896079990171 ] } },
{ "type": "Feature", "properties": { "Name": "古城第二小学", "Name_PY": "GuCheng DiEr XiaoXue", "Ctype": "小学", "Ntype": "141203", "Code": "110107", "Address": "古城南路", "Telephone": null, "label": "古城第二小学", "POINT_X": 116.19229968, "POINT_Y": 39.909328380200002 }, "geometry": { "type": "Point", "coordinates": [ 116.192299679886332, 39.909328380200634 ] } },
{ "type": "Feature", "properties": { "Name": "北京市石景山区银河小学", "Name_PY": "BeiJingShi ShiJingShanQu YinHe XiaoXue", "Ctype": "小学", "Ntype": "141203", "Code": "110107", "Address": "鲁谷六合园甲２４号", "Telephone": "010-68642340", "label": "北京市石景山区银河小学", "POINT_X": 116.21943288, "POINT_Y": 39.898538100300001 }, "geometry": { "type": "Point", "coordinates": [ 116.219432879823557, 39.898538100253177 ] } },
{ "type": "Feature", "properties": { "Name": "八角北路小学", "Name_PY": "BaJiao BeiLu XiaoXue", "Ctype": "小学", "Ntype": "141203", "Code": "110107", "Address": "八角北路５２", "Telephone": null, "label": "八角北路小学", "POINT_X": 116.1947898, "POINT_Y": 39.9170709 }, "geometry": { "type": "Point", "coordinates": [ 116.19478980010922, 39.917070900002102 ] } },
{ "type": "Feature", "properties": { "Name": "北京市海淀区太平路小学（复兴路４６号院东北）", "Name_PY": "BeiJingShi HaiDianQu TaiPing Lu XiaoXue (FuXing Lu 46 HaoYuan DongBei)", "Ctype": "小学", "Ntype": "141203", "Code": "110108", "Address": null, "Telephone": null, "label": "北京市海淀区太平路小学（复兴路４６号院东北）", "POINT_X": 116.25495156, "POINT_Y": 39.906018900299998 }, "geometry": { "type": "Point", "coordinates": [ 116.254951559966571, 39.906018900252093 ] } },
{ "type": "Feature", "properties": { "Name": "北京市丰台区张仪村小学", "Name_PY": "BeiJingShi FengTaiQu ZhangYiCun XiaoXue", "Ctype": "小学", "Ntype": "141203", "Code": "110106", "Address": null, "Telephone": null, "label": "北京市丰台区张仪村小学", "POINT_X": 116.22835296, "POINT_Y": 39.8787301797 }, "geometry": { "type": "Point", "coordinates": [ 116.228352960220946, 39.878730179654099 ] } },
{ "type": "Feature", "properties": { "Name": "北京市石景山区实验小学", "Name_PY": "BeiJingShi ShiJingShanQu ShiYan XiaoXue", "Ctype": "小学", "Ntype": "141203", "Code": "110107", "Address": "八角路３９号院－１", "Telephone": null, "label": "北京市石景山区实验小学", "POINT_X": 116.20312956, "POINT_Y": 39.91419963 }, "geometry": { "type": "Point", "coordinates": [ 116.203129559681543, 39.914199630008966 ] } },
{ "type": "Feature", "properties": { "Name": "北京市石景山实验小学", "Name_PY": "BeiJingShi ShiJingShan ShiYan XiaoXue", "Ctype": "小学", "Ntype": "141203", "Code": "110107", "Address": null, "Telephone": null, "label": "北京市石景山实验小学", "POINT_X": 116.20154664, "POINT_Y": 39.911813459699999 }, "geometry": { "type": "Point", "coordinates": [ 116.201546639565777, 39.911813459723419 ] } },
{ "type": "Feature", "properties": { "Name": "爱乐实验小学", "Name_PY": "AiLe ShiYan XiaoXue", "Ctype": "小学", "Ntype": "141203", "Code": "110107", "Address": null, "Telephone": "010-68875305", "label": "爱乐实验小学", "POINT_X": 116.22392244, "POINT_Y": 39.89258577 }, "geometry": { "type": "Point", "coordinates": [ 116.223922440268439, 39.89258577001732 ] } },
{ "type": "Feature", "properties": { "Name": "北京市石景山区向阳小学", "Name_PY": "BeiJingShi ShiJingShanQu XiangYang XiaoXue", "Ctype": "小学", "Ntype": "141203", "Code": "110107", "Address": "衙门口村大横街", "Telephone": null, "label": "北京市石景山区向阳小学", "POINT_X": 116.214579, "POINT_Y": 39.8880009903 }, "geometry": { "type": "Point", "coordinates": [ 116.214579000420599, 39.888000990253545 ] } },
{ "type": "Feature", "properties": { "Name": "北京市丰台区卢沟桥第二小学校（西门）", "Name_PY": "BeiJingShi FengTaiQu LuGouQiao DiEr XiaoXueXiao (XiMen)", "Ctype": "小学", "Ntype": "141203", "Code": "110106", "Address": null, "Telephone": null, "label": "北京市丰台区卢沟桥第二小学校（西门）", "POINT_X": 116.2332324, "POINT_Y": 39.847430339699997 }, "geometry": { "type": "Point", "coordinates": [ 116.233232400155202, 39.847430339738423 ] } },
{ "type": "Feature", "properties": { "Name": "北京京源学校小学部", "Name_PY": "BeiJing JingYuan XueXiao XiaoXueBu", "Ctype": "小学", "Ntype": "141203", "Code": "110107", "Address": null, "Telephone": null, "label": "北京京源学校小学部", "POINT_X": 116.2047618, "POINT_Y": 39.893380199600003 }, "geometry": { "type": "Point", "coordinates": [ 116.204761800416804, 39.893380199636567 ] } },
{ "type": "Feature", "properties": { "Name": "分院附属小学", "Name_PY": "FenYuan FuShu XiaoXue", "Ctype": "小学", "Ntype": "141203", "Code": "110107", "Address": "古城小街１８号", "Telephone": null, "label": "分院附属小学", "POINT_X": 116.1913104, "POINT_Y": 39.91291866 }, "geometry": { "type": "Point", "coordinates": [ 116.191310399555391, 39.912918659968227 ] } },
{ "type": "Feature", "properties": { "Name": "北京市石景山区六一小学", "Name_PY": "BeiJingShi ShiJingShanQu LiuYi XiaoXue", "Ctype": "小学", "Ntype": "141203", "Code": "110107", "Address": "八大处路乙２号", "Telephone": "010-88963389", "label": "北京市石景山区六一小学", "POINT_X": 116.1886824, "POINT_Y": 39.953221829599997 }, "geometry": { "type": "Point", "coordinates": [ 116.188682399773029, 39.953221829623772 ] } },
{ "type": "Feature", "properties": { "Name": "北京市石景山先锋小学", "Name_PY": "BeiJingShi ShiJingShan XianFeng XiaoXue", "Ctype": "小学", "Ntype": "141203", "Code": "110107", "Address": "绍家坡", "Telephone": null, "label": "北京市石景山先锋小学", "POINT_X": 116.17292592, "POINT_Y": 39.945111120200004 }, "geometry": { "type": "Point", "coordinates": [ 116.172925919595627, 39.945111120182105 ] } },
{ "type": "Feature", "properties": { "Name": "北京市石景山区广宁村小学", "Name_PY": "BeiJingShi ShiJingShanQu GuangNingCun XiaoXue", "Ctype": "小学", "Ntype": "141203", "Code": "110107", "Address": "新立街１５１", "Telephone": null, "label": "北京市石景山区广宁村小学", "POINT_X": 116.14320684, "POINT_Y": 39.929355989900003 }, "geometry": { "type": "Point", "coordinates": [ 116.143206839623986, 39.929355989887085 ] } },
{ "type": "Feature", "properties": { "Name": "炮厂小学", "Name_PY": "PaoChang XiaoXue", "Ctype": "小学", "Ntype": "141203", "Code": "110107", "Address": "五里坨", "Telephone": null, "label": "炮厂小学", "POINT_X": 116.13403764, "POINT_Y": 39.956394330199998 }, "geometry": { "type": "Point", "coordinates": [ 116.134037639825237, 39.956394330234218 ] } },
{ "type": "Feature", "properties": { "Name": "香山小学", "Name_PY": "XiangShan XiaoXue", "Ctype": "小学", "Ntype": "141203", "Code": "110108", "Address": "香山北正黄旗３６号", "Telephone": null, "label": "香山小学", "POINT_X": 116.20558584, "POINT_Y": 39.988765890400003 }, "geometry": { "type": "Point", "coordinates": [ 116.205585840214439, 39.988765890433569 ] } },
{ "type": "Feature", "properties": { "Name": "北京玉泉小学（金沟河路）", "Name_PY": "BeiJing YuQuan XiaoXue (JinGouHe Lu)", "Ctype": "小学", "Ntype": "141203", "Code": "110108", "Address": "金沟河路３５号", "Telephone": null, "label": "北京玉泉小学（金沟河路）", "POINT_X": 116.25487416, "POINT_Y": 39.918291119899997 }, "geometry": { "type": "Point", "coordinates": [ 116.254874159814676, 39.918291119939283 ] } },
{ "type": "Feature", "properties": { "Name": "金顶街第四小学", "Name_PY": "JinDingJie DiSi XiaoXue", "Ctype": "小学", "Ntype": "141203", "Code": "110107", "Address": "金顶北路", "Telephone": null, "label": "金顶街第四小学", "POINT_X": 116.1700956, "POINT_Y": 39.930762329899999 }, "geometry": { "type": "Point", "coordinates": [ 116.170095600231775, 39.930762329917627 ] } },
{ "type": "Feature", "properties": { "Name": "北京市海淀区五一小学（八角东街）", "Name_PY": "BeiJingShi HaiDianQu WuYi XiaoXue (BaJiao DongJie)", "Ctype": "小学", "Ntype": "141203", "Code": "110108", "Address": null, "Telephone": null, "label": "北京市海淀区五一小学（八角东街）", "POINT_X": 116.207568, "POINT_Y": 39.921730919700003 }, "geometry": { "type": "Point", "coordinates": [ 116.207567999963317, 39.92173091974621 ] } },
{ "type": "Feature", "properties": { "Name": "北京市石景山区西黄村小学", "Name_PY": "BeiJingShi ShiJingShanQu XiHuangCun XiaoXue", "Ctype": "小学", "Ntype": "141203", "Code": "110107", "Address": "八大处路１０２", "Telephone": null, "label": "北京市石景山区西黄村小学", "POINT_X": 116.19970416, "POINT_Y": 39.933400140400003 }, "geometry": { "type": "Point", "coordinates": [ 116.199704159819134, 39.933400140404217 ] } },
{ "type": "Feature", "properties": { "Name": "石景山外语实验小学", "Name_PY": "ShiJingShan WaiYu ShiYan XiaoXue", "Ctype": "小学", "Ntype": "141203", "Code": "110107", "Address": "苹果园南路东口首钢黄南苑居民小区", "Telephone": null, "label": "石景山外语实验小学", "POINT_X": 116.19853524, "POINT_Y": 39.9292180204 }, "geometry": { "type": "Point", "coordinates": [ 116.198535239909461, 39.929218020395354 ] } },
{ "type": "Feature", "properties": { "Name": "金顶街第二小学（金顶北路）", "Name_PY": "JinDingJie DiEr XiaoXue (JinDing BeiLu)", "Ctype": "小学", "Ntype": "141203", "Code": "110107", "Address": "金顶北路７１", "Telephone": null, "label": "金顶街第二小学（金顶北路）", "POINT_X": 116.16595344, "POINT_Y": 39.93014493 }, "geometry": { "type": "Point", "coordinates": [ 116.165953439799523, 39.930144930044548 ] } },
{ "type": "Feature", "properties": { "Name": "石景山区北辛安小学", "Name_PY": "ShiJingShanQu BeiXinAn XiaoXue", "Ctype": "小学", "Ntype": "141203", "Code": "110107", "Address": "北辛安南岔１３", "Telephone": null, "label": "石景山区北辛安小学", "POINT_X": 116.16838308, "POINT_Y": 39.920056919899999 }, "geometry": { "type": "Point", "coordinates": [ 116.168383079715454, 39.92005691989101 ] } },
{ "type": "Feature", "properties": { "Name": "慧远小学", "Name_PY": "HuiYuan XiaoXue", "Ctype": "小学", "Ntype": "141203", "Code": "110107", "Address": "北辛安铁壁街２２号附近", "Telephone": null, "label": "慧远小学", "POINT_X": 116.16583752, "POINT_Y": 39.91869819 }, "geometry": { "type": "Point", "coordinates": [ 116.165837519885713, 39.918698189969518 ] } },
{ "type": "Feature", "properties": { "Name": "海特花园小学", "Name_PY": "HaiTe HuaYuan XiaoXue", "Ctype": "小学", "Ntype": "141203", "Code": "110107", "Address": null, "Telephone": null, "label": "海特花园小学", "POINT_X": 116.18491392, "POINT_Y": 39.933454949599998 }, "geometry": { "type": "Point", "coordinates": [ 116.184913920241343, 39.933454949586292 ] } },
{ "type": "Feature", "properties": { "Name": "海淀区行知实验学校龚村小学部", "Name_PY": "HaiDianQu XingZhi ShiYan XueXiao GongCun XiaoXueBu", "Ctype": "小学", "Ntype": "141203", "Code": "110108", "Address": "田村龚村", "Telephone": null, "label": "海淀区行知实验学校龚村小学部", "POINT_X": 116.22179412, "POINT_Y": 39.927818790400003 }, "geometry": { "type": "Point", "coordinates": [ 116.221794120002642, 39.927818790404899 ] } },
{ "type": "Feature", "properties": { "Name": "北京市海淀区巨山小学（香山艺墅东南）", "Name_PY": "BeiJingShi HaiDianQu JuShan XiaoXue (XiangShan YiShu DongNan)", "Ctype": "小学", "Ntype": "141203", "Code": "110108", "Address": "四季青", "Telephone": null, "label": "北京市海淀区巨山小学（香山艺墅东南）", "POINT_X": 116.21124792000001, "POINT_Y": 39.960980819600003 }, "geometry": { "type": "Point", "coordinates": [ 116.211247919655875, 39.960980819609176 ] } },
{ "type": "Feature", "properties": { "Name": "北京市海淀区第四实验小学", "Name_PY": "BeiJingShi HaiDianQu DiSi ShiYan XiaoXue", "Ctype": "小学", "Ntype": "141203", "Code": "110108", "Address": "香山南路１５号", "Telephone": null, "label": "北京市海淀区第四实验小学", "POINT_X": 116.20804284, "POINT_Y": 39.97177056 }, "geometry": { "type": "Point", "coordinates": [ 116.208042840204939, 39.971770559963431 ] } },
{ "type": "Feature", "properties": { "Name": "北京市海淀区巨山小学（巨山馨苑东北）", "Name_PY": "BeiJingShi HaiDianQu JuShan XiaoXue (JuShan XinYuan DongBei)", "Ctype": "小学", "Ntype": "141203", "Code": "110108", "Address": "四季青巨山路", "Telephone": null, "label": "北京市海淀区巨山小学（巨山馨苑东北）", "POINT_X": 116.22863376, "POINT_Y": 39.945396420199998 }, "geometry": { "type": "Point", "coordinates": [ 116.228633760040111, 39.945396420208681 ] } },
{ "type": "Feature", "properties": { "Name": "北京市海淀区田村中心小学（东门）", "Name_PY": "BeiJingShi HaiDianQu TianCun ZhongXin XiaoXue (DongMen)", "Ctype": "小学", "Ntype": "141203", "Code": "110108", "Address": "田村后街１１８号", "Telephone": null, "label": "北京市海淀区田村中心小学（东门）", "POINT_X": 116.24512536, "POINT_Y": 39.9315180599 }, "geometry": { "type": "Point", "coordinates": [ 116.245125360447105, 39.931518059910616 ] } },
{ "type": "Feature", "properties": { "Name": "北京市海淀区田村中心小学", "Name_PY": "BeiJingShi HaiDianQu TianCun ZhongXin XiaoXue", "Ctype": "小学", "Ntype": "141203", "Code": "110108", "Address": "田村路", "Telephone": "010-68171136", "label": "北京市海淀区田村中心小学", "POINT_X": 116.2449306, "POINT_Y": 39.930916679699997 }, "geometry": { "type": "Point", "coordinates": [ 116.244930599667555, 39.930916679661095 ] } },
{ "type": "Feature", "properties": { "Name": "苹果园第二小学", "Name_PY": "PingGuoYuan DiEr XiaoXue", "Ctype": "小学", "Ntype": "141203", "Code": "110107", "Address": "苹果园一区甲１０", "Telephone": null, "label": "苹果园第二小学", "POINT_X": 116.18909928, "POINT_Y": 39.929817330399999 }, "geometry": { "type": "Point", "coordinates": [ 116.189099279608172, 39.929817330405513 ] } },
{ "type": "Feature", "properties": { "Name": "石景山区杨庄小学", "Name_PY": "ShiJingShanQu YangZhuang XiaoXue", "Ctype": "小学", "Ntype": "141203", "Code": "110107", "Address": "八角北路八角街道杨南社区", "Telephone": null, "label": "石景山区杨庄小学", "POINT_X": 116.19685008, "POINT_Y": 39.919174919699998 }, "geometry": { "type": "Point", "coordinates": [ 116.196850080366971, 39.919174919686839 ] } },
{ "type": "Feature", "properties": { "Name": "古城第二小学", "Name_PY": "GuCheng DiEr XiaoXue", "Ctype": "小学", "Ntype": "141203", "Code": "110107", "Address": "古城南路", "Telephone": null, "label": "古城第二小学", "POINT_X": 116.189631, "POINT_Y": 39.919216409900002 }, "geometry": { "type": "Point", "coordinates": [ 116.189631000170607, 39.919216409909438 ] } },
{ "type": "Feature", "properties": { "Name": "北京市海淀区张北希望小学", "Name_PY": "BeiJingShi HaiDianQu ZhangBei XiWang XiaoXue", "Ctype": "小学", "Ntype": "141203", "Code": "110108", "Address": "四季青祁家村", "Telephone": null, "label": "北京市海淀区张北希望小学", "POINT_X": 116.22884472, "POINT_Y": 39.961084409800002 }, "geometry": { "type": "Point", "coordinates": [ 116.22884472030762, 39.961084409817715 ] } },
{ "type": "Feature", "properties": { "Name": "北京市石景山区红旗小学", "Name_PY": "BeiJingShi ShiJingShanQu HongQi XiaoXue", "Ctype": "小学", "Ntype": "141203", "Code": "110107", "Address": "五里坨社区", "Telephone": null, "label": "北京市石景山区红旗小学", "POINT_X": 116.14005072, "POINT_Y": 39.950364779700003 }, "geometry": { "type": "Point", "coordinates": [ 116.140050720164709, 39.950364779710867 ] } },
{ "type": "Feature", "properties": { "Name": "杨庄中区小学校", "Name_PY": "YangZhuang ZhongQu XiaoXueXiao", "Ctype": "小学", "Ntype": "141203", "Code": "110107", "Address": null, "Telephone": null, "label": "杨庄中区小学校", "POINT_X": 116.19072468, "POINT_Y": 39.92239323 }, "geometry": { "type": "Point", "coordinates": [ 116.190724680099947, 39.922393229963632 ] } },
{ "type": "Feature", "properties": { "Name": "金顶街第二小学（金顶街社区卫生服务中心东南）", "Name_PY": "JinDing Jie DiEr XiaoXue (JinDingJie SheQu WeiSheng FuWu ZhongXin DongNan)", "Ctype": "小学", "Ntype": "141203", "Code": "110107", "Address": null, "Telephone": null, "label": "金顶街第二小学（金顶街社区卫生服务中心东南）", "POINT_X": 116.16236568, "POINT_Y": 39.9284165698 }, "geometry": { "type": "Point", "coordinates": [ 116.162365679932236, 39.928416569768956 ] } },
{ "type": "Feature", "properties": { "Name": "北京市石景山区电厂路小学", "Name_PY": "BeiJingShi ShiJingShanQu DianChang Lu XiaoXue", "Ctype": "小学", "Ntype": "141203", "Code": "110107", "Address": "高井路１８", "Telephone": null, "label": "北京市石景山区电厂路小学", "POINT_X": 116.13948552, "POINT_Y": 39.936981329799998 }, "geometry": { "type": "Point", "coordinates": [ 116.139485519641084, 39.936981329824562 ] } },
{ "type": "Feature", "properties": { "Name": "四王府小学", "Name_PY": "SiWangFu XiaoXue", "Ctype": "小学", "Ntype": "141203", "Code": "110108", "Address": null, "Telephone": null, "label": "四王府小学", "POINT_X": 116.21589588000001, "POINT_Y": 39.997689300099999 }, "geometry": { "type": "Point", "coordinates": [ 116.215895880390576, 39.997689300121181 ] } },
{ "type": "Feature", "properties": { "Name": "北京市海淀区辛庄小学", "Name_PY": "BeiJingShi HaiDianQu XinZhuang XiaoXue", "Ctype": "小学", "Ntype": "141203", "Code": "110108", "Address": "温泉镇辛庄村", "Telephone": null, "label": "北京市海淀区辛庄小学", "POINT_X": 116.15119488000001, "POINT_Y": 40.064049989700003 }, "geometry": { "type": "Point", "coordinates": [ 116.151194879739933, 40.064049989715329 ] } },
{ "type": "Feature", "properties": { "Name": "永丰中心小学", "Name_PY": "YongFeng ZhongXin XiaoXue", "Ctype": "小学", "Ntype": "141203", "Code": "110108", "Address": "西北旺六里屯", "Telephone": null, "label": "永丰中心小学", "POINT_X": 116.24247792, "POINT_Y": 40.0667982298 }, "geometry": { "type": "Point", "coordinates": [ 116.242477920020065, 40.066798229754568 ] } },
{ "type": "Feature", "properties": { "Name": "宏丰小学", "Name_PY": "HongFeng XiaoXue", "Ctype": "小学", "Ntype": "141203", "Code": "110108", "Address": "亮甲店村", "Telephone": "010-62456623", "label": "宏丰小学", "POINT_X": 116.23849056, "POINT_Y": 40.046125590300001 }, "geometry": { "type": "Point", "coordinates": [ 116.238490559891488, 40.046125590323811 ] } },
{ "type": "Feature", "properties": { "Name": "温泉中心小学", "Name_PY": "WenQuan ZhongXin XiaoXue", "Ctype": "小学", "Ntype": "141203", "Code": "110108", "Address": "环山村", "Telephone": "010-62456331", "label": "温泉中心小学", "POINT_X": 116.20590228, "POINT_Y": 40.037115780100002 }, "geometry": { "type": "Point", "coordinates": [ 116.205902280166129, 40.037115780069257 ] } },
{ "type": "Feature", "properties": { "Name": "北京市海淀区苏三四小学", "Name_PY": "BeiJingShi HaiDianQu SuSanSi XiaoXue", "Ctype": "小学", "Ntype": "141203", "Code": "110108", "Address": "苏三四南区１４６", "Telephone": "010-62454965", "label": "北京市海淀区苏三四小学", "POINT_X": 116.17446204, "POINT_Y": 40.077418410100002 }, "geometry": { "type": "Point", "coordinates": [ 116.174462039891296, 40.0774184101316 ] } },
{ "type": "Feature", "properties": { "Name": "北京市海淀区翠微小学温泉分校", "Name_PY": "BeiJingShi HaiDianQu CuiWei XiaoXue WenQuan FenXiao", "Ctype": "小学", "Ntype": "141203", "Code": "110108", "Address": null, "Telephone": null, "label": "北京市海淀区翠微小学温泉分校", "POINT_X": 116.16102324000001, "POINT_Y": 40.05495351 }, "geometry": { "type": "Point", "coordinates": [ 116.161023240330337, 40.054953509996551 ] } },
{ "type": "Feature", "properties": { "Name": "华学成龙小学", "Name_PY": "HuaXue ChengLong XiaoXue", "Ctype": "小学", "Ntype": "141203", "Code": "110108", "Address": "苏家坨", "Telephone": null, "label": "华学成龙小学", "POINT_X": 116.16094764, "POINT_Y": 40.077579959799998 }, "geometry": { "type": "Point", "coordinates": [ 116.160947639721826, 40.077579959847299 ] } },
{ "type": "Feature", "properties": { "Name": "红英小学", "Name_PY": "HongYing XiaoXue", "Ctype": "小学", "Ntype": "141203", "Code": "110108", "Address": "西北旺镇韩家川", "Telephone": null, "label": "红英小学", "POINT_X": 116.24279112000001, "POINT_Y": 40.034539619900002 }, "geometry": { "type": "Point", "coordinates": [ 116.242791119714411, 40.034539619907605 ] } },
{ "type": "Feature", "properties": { "Name": "海淀区打工子弟小学文华学校", "Name_PY": "HaiDianQu DaGong ZiDi XiaoXue WenHua XueXiao", "Ctype": "小学", "Ntype": "141203", "Code": "110108", "Address": "西北旺", "Telephone": "010-57034625", "label": "海淀区打工子弟小学文华学校", "POINT_X": 116.25046848, "POINT_Y": 40.038797700300002 }, "geometry": { "type": "Point", "coordinates": [ 116.250468480036375, 40.038797700253724 ] } },
{ "type": "Feature", "properties": { "Name": "北京市海淀区东埠头小学", "Name_PY": "BeiJingShi HaiDianQu DongBuTou XiaoXue", "Ctype": "小学", "Ntype": "141203", "Code": "110108", "Address": "温泉镇辛庄村", "Telephone": null, "label": "北京市海淀区东埠头小学", "POINT_X": 116.15247396, "POINT_Y": 40.0640136301 }, "geometry": { "type": "Point", "coordinates": [ 116.152473960305088, 40.064013630124975 ] } },
{ "type": "Feature", "properties": { "Name": "西玉河小学", "Name_PY": "Xi YuHe XiaoXue", "Ctype": "小学", "Ntype": "141203", "Code": "110108", "Address": "西北旺", "Telephone": null, "label": "西玉河小学", "POINT_X": 116.23809384, "POINT_Y": 40.09515714 }, "geometry": { "type": "Point", "coordinates": [ 116.238093840158626, 40.095157139990079 ] } },
{ "type": "Feature", "properties": { "Name": "北京市海淀区东马坊小学", "Name_PY": "BeiJingShi HaiDianQu DongMaFang XiaoXue", "Ctype": "小学", "Ntype": "141203", "Code": "110108", "Address": "东马坊２０", "Telephone": null, "label": "北京市海淀区东马坊小学", "POINT_X": 116.20011024, "POINT_Y": 40.094132490200003 }, "geometry": { "type": "Point", "coordinates": [ 116.200110239695846, 40.094132490222307 ] } },
{ "type": "Feature", "properties": { "Name": "北京市昌平区阳坊中心小学（碧春园小区西南）", "Name_PY": "BeiJingShi ChangPingQu YangFang ZhongXin XiaoXue (BiChunYuan XiaoQu XiNan)", "Ctype": "小学", "Ntype": "141203", "Code": "110114", "Address": "阳坊镇阳坊村北横街１号", "Telephone": null, "label": "北京市昌平区阳坊中心小学（碧春园小区西南）", "POINT_X": 116.14368276, "POINT_Y": 40.144390830299997 }, "geometry": { "type": "Point", "coordinates": [ 116.143682759951503, 40.144390830272641 ] } },
{ "type": "Feature", "properties": { "Name": "西贯市回民小学", "Name_PY": "XiGuanShi HuiMin XiaoXue", "Ctype": "小学", "Ntype": "141203", "Code": "110114", "Address": "阳坊镇西贯村", "Telephone": null, "label": "西贯市回民小学", "POINT_X": 116.1483732, "POINT_Y": 40.135901220299999 }, "geometry": { "type": "Point", "coordinates": [ 116.148373200163064, 40.135901220265168 ] } },
{ "type": "Feature", "properties": { "Name": "昌平区阳坊中心四家庄小学", "Name_PY": "ChangPingQu YangFang ZhongXin SiJiaZhuang XiaoXue", "Ctype": "小学", "Ntype": "141203", "Code": "110114", "Address": "西家庄西南街１６号", "Telephone": null, "label": "昌平区阳坊中心四家庄小学", "POINT_X": 116.15508648, "POINT_Y": 40.16585106 }, "geometry": { "type": "Point", "coordinates": [ 116.155086480057093, 40.165851059978479 ] } },
{ "type": "Feature", "properties": { "Name": "沙河中心西沙屯小学", "Name_PY": "ShaHe ZhongXin XiShaTun XiaoXue", "Ctype": "小学", "Ntype": "141203", "Code": "110114", "Address": "沙河镇西沙屯村", "Telephone": null, "label": "沙河中心西沙屯小学", "POINT_X": 116.25110496000001, "POINT_Y": 40.164565319899999 }, "geometry": { "type": "Point", "coordinates": [ 116.25110495992601, 40.164565319933615 ] } },
{ "type": "Feature", "properties": { "Name": "北京市海淀区白水洼小学", "Name_PY": "BeiJingShi HaiDianQu BaiShuiWa XiaoXue", "Ctype": "小学", "Ntype": "141203", "Code": "110108", "Address": "上庄镇白水洼村", "Telephone": null, "label": "北京市海淀区白水洼小学", "POINT_X": 116.20731816, "POINT_Y": 40.135916970099998 }, "geometry": { "type": "Point", "coordinates": [ 116.207318160204977, 40.135916970092126 ] } },
{ "type": "Feature", "properties": { "Name": "北京市昌平区阳坊中心小学（阳东路）", "Name_PY": "BeiJingShi ChangPingQu YangFang ZhongXin XiaoXue (Yang DongLu)", "Ctype": "小学", "Ntype": "141203", "Code": "110114", "Address": "阳坊镇阳八路", "Telephone": null, "label": "北京市昌平区阳坊中心小学（阳东路）", "POINT_X": 116.14553676, "POINT_Y": 40.146311880200003 }, "geometry": { "type": "Point", "coordinates": [ 116.145536760013556, 40.14631188018916 ] } },
{ "type": "Feature", "properties": { "Name": "上庄中心小学", "Name_PY": "ShangZhuang ZhongXin XiaoXue", "Ctype": "小学", "Ntype": "141203", "Code": "110108", "Address": null, "Telephone": null, "label": "上庄中心小学", "POINT_X": 116.2133496, "POINT_Y": 40.114370519700003 }, "geometry": { "type": "Point", "coordinates": [ 116.213349600203969, 40.114370519683803 ] } },
{ "type": "Feature", "properties": { "Name": "昌平区马池口镇娄自庄小学", "Name_PY": "ChangPingQu MaChiKouZhen LouZiZhuang XiaoXue", "Ctype": "小学", "Ntype": "141203", "Code": "110114", "Address": "马池口", "Telephone": null, "label": "昌平区马池口镇娄自庄小学", "POINT_X": 116.21293668, "POINT_Y": 40.1630876097 }, "geometry": { "type": "Point", "coordinates": [ 116.212936680083772, 40.163087609705485 ] } },
{ "type": "Feature", "properties": { "Name": "海淀区上地实验小学", "Name_PY": "HaiDianQu ShangDi ShiYan XiaoXue", "Ctype": "小学", "Ntype": "141203", "Code": "110108", "Address": null, "Telephone": null, "label": "海淀区上地实验小学", "POINT_X": 116.20241568, "POINT_Y": 40.128144750200001 }, "geometry": { "type": "Point", "coordinates": [ 116.202415679640012, 40.128144750180127 ] } },
{ "type": "Feature", "properties": { "Name": "海淀区上地实验小学（南门）", "Name_PY": "HaiDianQu ShangDi ShiYan XiaoXue (NanMen)", "Ctype": "小学", "Ntype": "141203", "Code": "110108", "Address": null, "Telephone": null, "label": "海淀区上地实验小学（南门）", "POINT_X": 116.2022706, "POINT_Y": 40.127190930099999 }, "geometry": { "type": "Point", "coordinates": [ 116.202270600108136, 40.127190930117365 ] } },
{ "type": "Feature", "properties": { "Name": "海淀区上地实验小学（北门）", "Name_PY": "HaiDianQu ShangDi ShiYan XiaoXue (BeiMen)", "Ctype": "小学", "Ntype": "141203", "Code": "110108", "Address": null, "Telephone": null, "label": "海淀区上地实验小学（北门）", "POINT_X": 116.20236708, "POINT_Y": 40.128841800300002 }, "geometry": { "type": "Point", "coordinates": [ 116.202367080276645, 40.128841800308862 ] } },
{ "type": "Feature", "properties": { "Name": "北京市昌平区昌盛园小学", "Name_PY": "BeiJingShi ChangPingQu ChangShengYuan XiaoXue", "Ctype": "小学", "Ntype": "141203", "Code": "110114", "Address": "昌盛路", "Telephone": null, "label": "北京市昌平区昌盛园小学", "POINT_X": 116.25111576, "POINT_Y": 40.209218100199998 }, "geometry": { "type": "Point", "coordinates": [ 116.251115759884442, 40.209218100235205 ] } },
{ "type": "Feature", "properties": { "Name": "北京市昌平区马池口中心小学", "Name_PY": "BeiJingShi ChangPingQu MaChiKou ZhongXin XiaoXue", "Ctype": "小学", "Ntype": "141203", "Code": "110114", "Address": "马池口", "Telephone": null, "label": "北京市昌平区马池口中心小学", "POINT_X": 116.21549628, "POINT_Y": 40.183270019699997 }, "geometry": { "type": "Point", "coordinates": [ 116.215496280129287, 40.183270019695726 ] } },
{ "type": "Feature", "properties": { "Name": "城南中心小学", "Name_PY": "ChengNan ZhongXin XiaoXue", "Ctype": "小学", "Ntype": "141203", "Code": "110114", "Address": "南郝庄", "Telephone": null, "label": "城南中心小学", "POINT_X": 116.2097424, "POINT_Y": 40.21713378 }, "geometry": { "type": "Point", "coordinates": [ 116.209742399692004, 40.217133779999983 ] } },
{ "type": "Feature", "properties": { "Name": "北京市昌平区城南中心邓庄小学", "Name_PY": "BeiJingShi ChangPingQu ChengNan ZhongXin DengZhuang XiaoXue", "Ctype": "小学", "Ntype": "141203", "Code": "110114", "Address": null, "Telephone": null, "label": "北京市昌平区城南中心邓庄小学", "POINT_X": 116.1965142, "POINT_Y": 40.229832870099997 }, "geometry": { "type": "Point", "coordinates": [ 116.196514199770604, 40.229832870090945 ] } },
{ "type": "Feature", "properties": { "Name": "北京市昌平区城南中心旧县小学", "Name_PY": "BeiJingShi ChangPingQu ChengNan ZhongXin JiuXian XiaoXue", "Ctype": "小学", "Ntype": "141203", "Code": "110114", "Address": null, "Telephone": null, "label": "北京市昌平区城南中心旧县小学", "POINT_X": 116.18962704, "POINT_Y": 40.2237344702 }, "geometry": { "type": "Point", "coordinates": [ 116.189627039556285, 40.223734470169688 ] } },
{ "type": "Feature", "properties": { "Name": "昌平区城北中心东关小学", "Name_PY": "ChangPingQu ChengBei ZhongXin DongGuan XiaoXue", "Ctype": "小学", "Ntype": "141203", "Code": "110114", "Address": "城北街道东关", "Telephone": null, "label": "昌平区城北中心东关小学", "POINT_X": 116.24301576000001, "POINT_Y": 40.218519780100003 }, "geometry": { "type": "Point", "coordinates": [ 116.243015759569744, 40.218519780063843 ] } },
{ "type": "Feature", "properties": { "Name": "昌平区二毛学校", "Name_PY": "ChangPingQu ErMao XueXiao", "Ctype": "小学", "Ntype": "141203", "Code": "110114", "Address": "昌平五街宽街胡同", "Telephone": null, "label": "昌平区二毛学校", "POINT_X": 116.23020084, "POINT_Y": 40.214314349600002 }, "geometry": { "type": "Point", "coordinates": [ 116.230200840396492, 40.214314349627614 ] } },
{ "type": "Feature", "properties": { "Name": "北京市昌平区城北中心六街小学", "Name_PY": "BeiJingShi ChangPingQu ChengBei ZhongXin Liu Jie XiaoXue", "Ctype": "小学", "Ntype": "141203", "Code": "110114", "Address": "瑞光胡同１０号", "Telephone": null, "label": "北京市昌平区城北中心六街小学", "POINT_X": 116.228799, "POINT_Y": 40.221763829799997 }, "geometry": { "type": "Point", "coordinates": [ 116.228798999674154, 40.221763829836902 ] } },
{ "type": "Feature", "properties": { "Name": "北京市昌平区城北中心三街小学", "Name_PY": "BeiJingShi ChangPingQu ChengBei ZhongXin SanJie XiaoXue", "Ctype": "小学", "Ntype": "141203", "Code": "110114", "Address": "城北街道三街财神庙胡同５号", "Telephone": null, "label": "北京市昌平区城北中心三街小学", "POINT_X": 116.23646016, "POINT_Y": 40.226981670299999 }, "geometry": { "type": "Point", "coordinates": [ 116.236460159608782, 40.226981670267946 ] } },
{ "type": "Feature", "properties": { "Name": "昌平区城关小学", "Name_PY": "ChangPingQu ChengGuan XiaoXue", "Ctype": "小学", "Ntype": "141203", "Code": "110114", "Address": null, "Telephone": null, "label": "昌平区城关小学", "POINT_X": 116.2234872, "POINT_Y": 40.227742350100002 }, "geometry": { "type": "Point", "coordinates": [ 116.223487199874398, 40.227742350129404 ] } },
{ "type": "Feature", "properties": { "Name": "北京市昌平区城北中心西关小学", "Name_PY": "BeiJingShi ChangPingQu ChengBei ZhongXin XiGuan XiaoXue", "Ctype": "小学", "Ntype": "141203", "Code": "110114", "Address": null, "Telephone": null, "label": "北京市昌平区城北中心西关小学", "POINT_X": 116.22128076, "POINT_Y": 40.218580620099999 }, "geometry": { "type": "Point", "coordinates": [ 116.221280759999104, 40.218580620099601 ] } },
{ "type": "Feature", "properties": { "Name": "北京市昌平区十三陵中心小学", "Name_PY": "BeiJingShi ChangPingQu ShiSanLing ZhongXin XiaoXue", "Ctype": "小学", "Ntype": "141203", "Code": "110114", "Address": "十三陵", "Telephone": null, "label": "北京市昌平区十三陵中心小学", "POINT_X": 116.20053684, "POINT_Y": 40.243884660100001 }, "geometry": { "type": "Point", "coordinates": [ 116.200536840303016, 40.243884660148979 ] } },
{ "type": "Feature", "properties": { "Name": "南口中心辛力庄小学", "Name_PY": "NanKou ZhongXin Xin LiZhuang XiaoXue", "Ctype": "小学", "Ntype": "141203", "Code": "110114", "Address": null, "Telephone": null, "label": "南口中心辛力庄小学", "POINT_X": 116.16509304, "POINT_Y": 40.244188770400001 }, "geometry": { "type": "Point", "coordinates": [ 116.165093040411534, 40.24418877039551 ] } },
{ "type": "Feature", "properties": { "Name": "南口中心七间房小学", "Name_PY": "NanKou ZhongXin QiJianFang XiaoXue", "Ctype": "小学", "Ntype": "141203", "Code": "110114", "Address": null, "Telephone": null, "label": "南口中心七间房小学", "POINT_X": 116.16280236, "POINT_Y": 40.227584850100001 }, "geometry": { "type": "Point", "coordinates": [ 116.162802360140859, 40.22758485006085 ] } },
{ "type": "Feature", "properties": { "Name": "亭自庄学校小学部", "Name_PY": "Ting ZiZhuang XueXiao XiaoXueBu", "Ctype": "小学", "Ntype": "141203", "Code": "110114", "Address": "北小营村８０５号", "Telephone": null, "label": "亭自庄学校小学部", "POINT_X": 116.16573888000001, "POINT_Y": 40.184647020200003 }, "geometry": { "type": "Point", "coordinates": [ 116.165738880445019, 40.184647020243858 ] } },
{ "type": "Feature", "properties": { "Name": "北京昌平二中分校小学部", "Name_PY": "BeiJing ChangPing ErZhong FenXiao XiaoXueBu", "Ctype": "小学", "Ntype": "141203", "Code": "110114", "Address": null, "Telephone": null, "label": "北京昌平二中分校小学部", "POINT_X": 116.21016684, "POINT_Y": 40.211195130299998 }, "geometry": { "type": "Point", "coordinates": [ 116.210166840127613, 40.211195130251099 ] } },
{ "type": "Feature", "properties": { "Name": "北京昌平区马池口中心白浮小学", "Name_PY": "BeiJing ChangPingQu MaChiKou ZhongXin BaiFu XiaoXue", "Ctype": "小学", "Ntype": "141203", "Code": "110114", "Address": null, "Telephone": null, "label": "北京昌平区马池口中心白浮小学", "POINT_X": 116.24913036, "POINT_Y": 40.189267080400001 }, "geometry": { "type": "Point", "coordinates": [ 116.249130359878222, 40.189267080411469 ] } },
{ "type": "Feature", "properties": { "Name": "白浮小学家长学校", "Name_PY": "BaiFu XiaoXue JiaZhang XueXiao", "Ctype": "小学", "Ntype": "141203", "Code": "110114", "Address": null, "Telephone": null, "label": "白浮小学家长学校", "POINT_X": 116.2491318, "POINT_Y": 40.189267979699999 }, "geometry": { "type": "Point", "coordinates": [ 116.249131799692918, 40.189267979733529 ] } },
{ "type": "Feature", "properties": { "Name": "泰陵园小学", "Name_PY": "TaiLingYuan XiaoXue", "Ctype": "小学", "Ntype": "141203", "Code": "110114", "Address": "十三陵镇", "Telephone": null, "label": "泰陵园小学", "POINT_X": 116.2125828, "POINT_Y": 40.272450929800002 }, "geometry": { "type": "Point", "coordinates": [ 116.212582799556571, 40.272450929766649 ] } },